c_id,c_name,country,lat,long,weather_date,temp,humidity,cloudiness,w_speed
3652764,Puerto Ayora,EC,-0.74,-90.35,            [77],69,40,13.87
5106841,Albany,US,42.6,-73.97,            [77, 70],40,0,3.13
2126199,Cherskiy,RU,68.75,161.3,            [77, 70, 1.72],93,97,5.59
3448903,São João da Barra,BR,-21.64,-41.05,            [77, 70, 1.72, None, 84.2],66,0,13.87
5866583,Saint Paul Harbor,US,57.79,-152.41,            [77, 70, 1.72, None, 84.2, 42.8],52,1,3.36
2075265,Busselton,AU,-33.65,115.33,            [77, 70, 1.72, None, 84.2, 42.8, 48],98,42,20.18
5855927,Hilo,US,19.73,-155.09,            [77, 70, 1.72, None, 84.2, 42.8, 48, 82.4],65,75,8.05
4032243,Vaini,TO,-21.2,-175.2,            [77, 70, 1.72, None, 84.2, 42.8, 48, 82.4, 77],78,20,6.93
6201424,Mataura,NZ,-46.19,168.86,            [77, 70, 1.72, None, 84.2, 42.8, 48, 82.4, 77, None, 50],84,15,3
2070998,Geraldton,AU,-28.77,114.6,            [77, 70, 1.72, None, 84.2, 42.8, 48, 82.4, 77, None, 50, 60.8],55,40,14.99
3874787,Punta Arenas,CL,-53.15,-70.92,            [77, 70, 1.72, None, 84.2, 42.8, 48, 82.4, 77, None, 50, 60.8, 51.8],71,75,12.75
2163355,Hobart,AU,-42.88,147.33,            [77, 70, 1.72, None, 84.2, 42.8, 48, 82.4, 77, None, 50, 60.8, 51.8, 55],81,0,9.17
2206939,Bluff,NZ,-46.6,168.33,            [77, 70, 1.72, None, 84.2, 42.8, 48, 82.4, 77, None, 50, 60.8, 51.8, 55, 50],84,2,3
3899695,Ancud,CL,-41.87,-73.82,            [77, 70, 1.72, None, 84.2, 42.8, 48, 82.4, 77, None, 50, 60.8, 51.8, 55, 50, 66.2],52,0,10.29
3146487,Raudeberg,NO,61.99,5.14,            [77, 70, 1.72, None, 84.2, 42.8, 48, 82.4, 77, None, 50, 60.8, 51.8, 55, 50, 66.2, 48.99],82,100,7.38
4030556,Rikitea,PF,-23.12,-134.97,            [77, 70, 1.72, None, 84.2, 42.8, 48, 82.4, 77, None, 50, 60.8, 51.8, 55, 50, 66.2, 48.99, 73.98],76,57,16.33
2071860,Esperance,AU,-33.87,121.9,            [77, 70, 1.72, None, 84.2, 42.8, 48, 82.4, 77, None, 50, 60.8, 51.8, 55, 50, 66.2, 48.99, 73.98, 53.6],81,0,17.22
115770,Shahr-e Kord,IR,32.33,50.86,            [77, 70, 1.72, None, 84.2, 42.8, 48, 82.4, 77, None, 50, 60.8, 51.8, 55, 50, 66.2, 48.99, 73.98, 53.6, 44.6],45,0,4.7
2155415,New Norfolk,AU,-42.78,147.06,            [77, 70, 1.72, None, 84.2, 42.8, 48, 82.4, 77, None, 50, 60.8, 51.8, 55, 50, 66.2, 48.99, 73.98, 53.6, 44.6, 55],69,100,3.27
935215,Saint-Philippe,RE,-21.36,55.77,            [77, 70, 1.72, None, 84.2, 42.8, 48, 82.4, 77, None, 50, 60.8, 51.8, 55, 50, 66.2, 48.99, 73.98, 53.6, 44.6, 55, None, 71.6],78,0,5.82
2022572,Khatanga,RU,71.97,102.5,            [77, 70, 1.72, None, 84.2, 42.8, 48, 82.4, 77, None, 50, 60.8, 51.8, 55, 50, 66.2, 48.99, 73.98, 53.6, 44.6, 55, None, 71.6, 21.76],98,95,12.12
2704613,Hudiksvall,SE,61.73,17.1,            [77, 70, 1.72, None, 84.2, 42.8, 48, 82.4, 77, None, 50, 60.8, 51.8, 55, 50, 66.2, 48.99, 73.98, 53.6, 44.6, 55, None, 71.6, 21.76, 38.97],75,94,3.6
3392126,Pilar,BR,-9.6,-35.96,            [77, 70, 1.72, None, 84.2, 42.8, 48, 82.4, 77, None, 50, 60.8, 51.8, 55, 50, 66.2, 48.99, 73.98, 53.6, 44.6, 55, None, 71.6, 21.76, 38.97, 77],88,75,10.29
1651810,Airai,TL,-8.93,125.41,            [77, 70, 1.72, None, 84.2, 42.8, 48, 82.4, 77, None, 50, 60.8, 51.8, 55, 50, 66.2, 48.99, 73.98, 53.6, 44.6, 55, None, 71.6, 21.76, 38.97, 77, 61.79],84,100,2.33
3386213,Touros,BR,-5.2,-35.46,            [77, 70, 1.72, None, 84.2, 42.8, 48, 82.4, 77, None, 50, 60.8, 51.8, 55, 50, 66.2, 48.99, 73.98, 53.6, 44.6, 55, None, 71.6, 21.76, 38.97, 77, 61.79, 75.2],94,75,5.82
2123292,Mgachi,RU,51.05,142.27,            [77, 70, 1.72, None, 84.2, 42.8, 48, 82.4, 77, None, 50, 60.8, 51.8, 55, 50, 66.2, 48.99, 73.98, 53.6, 44.6, 55, None, 71.6, 21.76, 38.97, 77, 61.79, 75.2, 20.1],91,100,10.27
3893726,Constitución,CL,-35.33,-72.42,            [77, 70, 1.72, None, 84.2, 42.8, 48, 82.4, 77, None, 50, 60.8, 51.8, 55, 50, 66.2, 48.99, 73.98, 53.6, 44.6, 55, None, 71.6, 21.76, 38.97, 77, 61.79, 75.2, 20.1, 65.91],54,10,17.07
2172880,Byron Bay,AU,-28.65,153.62,            [77, 70, 1.72, None, 84.2, 42.8, 48, 82.4, 77, None, 50, 60.8, 51.8, 55, 50, 66.2, 48.99, 73.98, 53.6, 44.6, 55, None, 71.6, 21.76, 38.97, 77, 61.79, 75.2, 20.1, 65.91, 61],93,90,3.36
5880054,Barrow,US,71.29,-156.79,            [77, 70, 1.72, None, 84.2, 42.8, 48, 82.4, 77, None, 50, 60.8, 51.8, 55, 50, 66.2, 48.99, 73.98, 53.6, 44.6, 55, None, 71.6, 21.76, 38.97, 77, 61.79, 75.2, 20.1, 65.91, 61, 10.4],78,90,12.75
4020109,Atuona,PF,-9.8,-139.03,            [77, 70, 1.72, None, 84.2, 42.8, 48, 82.4, 77, None, 50, 60.8, 51.8, 55, 50, 66.2, 48.99, 73.98, 53.6, 44.6, 55, None, 71.6, 21.76, 38.97, 77, 61.79, 75.2, 20.1, 65.91, 61, 10.4, 77.95],71,20,12.86
2167426,Emerald,AU,-23.53,148.17,            [77, 70, 1.72, None, 84.2, 42.8, 48, 82.4, 77, None, 50, 60.8, 51.8, 55, 50, 66.2, 48.99, 73.98, 53.6, 44.6, 55, None, 71.6, 21.76, 38.97, 77, 61.79, 75.2, 20.1, 65.91, 61, 10.4, 77.95, 63],93,48,6.93
5847411,Kahului,US,20.89,-156.47,            [77, 70, 1.72, None, 84.2, 42.8, 48, 82.4, 77, None, 50, 60.8, 51.8, 55, 50, 66.2, 48.99, 73.98, 53.6, 44.6, 55, None, 71.6, 21.76, 38.97, 77, 61.79, 75.2, 20.1, 65.91, 61, 10.4, 77.95, 63, 84.2],54,40,3.36
2063036,Port Lincoln,AU,-34.73,135.87,            [77, 70, 1.72, None, 84.2, 42.8, 48, 82.4, 77, None, 50, 60.8, 51.8, 55, 50, 66.2, 48.99, 73.98, 53.6, 44.6, 55, None, 71.6, 21.76, 38.97, 77, 61.79, 75.2, 20.1, 65.91, 61, 10.4, 77.95, 63, 84.2, 73.22],39,54,18.14
1015776,Bredasdorp,ZA,-34.53,20.04,            [77, 70, 1.72, None, 84.2, 42.8, 48, 82.4, 77, None, 50, 60.8, 51.8, 55, 50, 66.2, 48.99, 73.98, 53.6, 44.6, 55, None, 71.6, 21.76, 38.97, 77, 61.79, 75.2, 20.1, 65.91, 61, 10.4, 77.95, 63, 84.2, 73.22, 51.8],76,18,3.36
3443061,Chui,UY,-33.7,-53.46,            [77, 70, 1.72, None, 84.2, 42.8, 48, 82.4, 77, None, 50, 60.8, 51.8, 55, 50, 66.2, 48.99, 73.98, 53.6, 44.6, 55, None, 71.6, 21.76, 38.97, 77, 61.79, 75.2, 20.1, 65.91, 61, 10.4, 77.95, 63, 84.2, 73.22, 51.8, 66.78],69,99,12.28
359796,Suez,EG,29.97,32.53,            [77, 70, 1.72, None, 84.2, 42.8, 48, 82.4, 77, None, 50, 60.8, 51.8, 55, 50, 66.2, 48.99, 73.98, 53.6, 44.6, 55, None, 71.6, 21.76, 38.97, 77, 61.79, 75.2, 20.1, 65.91, 61, 10.4, 77.95, 63, 84.2, 73.22, 51.8, 66.78, 71.46],57,12,6.53
933995,Souillac,MU,-20.52,57.52,            [77, 70, 1.72, None, 84.2, 42.8, 48, 82.4, 77, None, 50, 60.8, 51.8, 55, 50, 66.2, 48.99, 73.98, 53.6, 44.6, 55, None, 71.6, 21.76, 38.97, 77, 61.79, 75.2, 20.1, 65.91, 61, 10.4, 77.95, 63, 84.2, 73.22, 51.8, 66.78, 71.46, 73.4],78,40,8.05
544084,Koslan,RU,63.46,48.9,            [77, 70, 1.72, None, 84.2, 42.8, 48, 82.4, 77, None, 50, 60.8, 51.8, 55, 50, 66.2, 48.99, 73.98, 53.6, 44.6, 55, None, 71.6, 21.76, 38.97, 77, 61.79, 75.2, 20.1, 65.91, 61, 10.4, 77.95, 63, 84.2, 73.22, 51.8, 66.78, 71.46, 73.4, 29.1],98,97,6.85
3369157,Cape Town,ZA,-33.93,18.42,            [77, 70, 1.72, None, 84.2, 42.8, 48, 82.4, 77, None, 50, 60.8, 51.8, 55, 50, 66.2, 48.99, 73.98, 53.6, 44.6, 55, None, 71.6, 21.76, 38.97, 77, 61.79, 75.2, 20.1, 65.91, 61, 10.4, 77.95, 63, 84.2, 73.22, 51.8, 66.78, 71.46, 73.4, 29.1, 59],58,0,13.87
3366880,Hermanus,ZA,-34.42,19.23,            [77, 70, 1.72, None, 84.2, 42.8, 48, 82.4, 77, None, 50, 60.8, 51.8, 55, 50, 66.2, 48.99, 73.98, 53.6, 44.6, 55, None, 71.6, 21.76, 38.97, 77, 61.79, 75.2, 20.1, 65.91, 61, 10.4, 77.95, 63, 84.2, 73.22, 51.8, 66.78, 71.46, 73.4, 29.1, 59, 53.01],81,65,7.38
5710360,Winnemucca,US,40.97,-117.74,            [77, 70, 1.72, None, 84.2, 42.8, 48, 82.4, 77, None, 50, 60.8, 51.8, 55, 50, 66.2, 48.99, 73.98, 53.6, 44.6, 55, None, 71.6, 21.76, 38.97, 77, 61.79, 75.2, 20.1, 65.91, 61, 10.4, 77.95, 63, 84.2, 73.22, 51.8, 66.78, 71.46, 73.4, 29.1, 59, 53.01, None, 30.2],63,90,6.13
336454,Ginir,ET,7.13,40.7,            [77, 70, 1.72, None, 84.2, 42.8, 48, 82.4, 77, None, 50, 60.8, 51.8, 55, 50, 66.2, 48.99, 73.98, 53.6, 44.6, 55, None, 71.6, 21.76, 38.97, 77, 61.79, 75.2, 20.1, 65.91, 61, 10.4, 77.95, 63, 84.2, 73.22, 51.8, 66.78, 71.46, 73.4, 29.1, 59, 53.01, None, 30.2, 57.58],69,0,5.68
4036284,Alofi,NU,-19.06,-169.92,            [77, 70, 1.72, None, 84.2, 42.8, 48, 82.4, 77, None, 50, 60.8, 51.8, 55, 50, 66.2, 48.99, 73.98, 53.6, 44.6, 55, None, 71.6, 21.76, 38.97, 77, 61.79, 75.2, 20.1, 65.91, 61, 10.4, 77.95, 63, 84.2, 73.22, 51.8, 66.78, 71.46, 73.4, 29.1, 59, 53.01, None, 30.2, 57.58, 77],78,40,10.29
2074865,Carnarvon,AU,-24.87,113.63,            [77, 70, 1.72, None, 84.2, 42.8, 48, 82.4, 77, None, 50, 60.8, 51.8, 55, 50, 66.2, 48.99, 73.98, 53.6, 44.6, 55, None, 71.6, 21.76, 38.97, 77, 61.79, 75.2, 20.1, 65.91, 61, 10.4, 77.95, 63, 84.2, 73.22, 51.8, 66.78, 71.46, 73.4, 29.1, 59, 53.01, None, 30.2, 57.58, 77, 66.2],55,10,14.99
485064,Syumsi,RU,57.11,51.61,            [77, 70, 1.72, None, 84.2, 42.8, 48, 82.4, 77, None, 50, 60.8, 51.8, 55, 50, 66.2, 48.99, 73.98, 53.6, 44.6, 55, None, 71.6, 21.76, 38.97, 77, 61.79, 75.2, 20.1, 65.91, 61, 10.4, 77.95, 63, 84.2, 73.22, 51.8, 66.78, 71.46, 73.4, 29.1, 59, 53.01, None, 30.2, 57.58, 77, 66.2, 30.74],97,100,9.64
4362001,Mayo,US,38.89,-76.51,            [77, 70, 1.72, None, 84.2, 42.8, 48, 82.4, 77, None, 50, 60.8, 51.8, 55, 50, 66.2, 48.99, 73.98, 53.6, 44.6, 55, None, 71.6, 21.76, 38.97, 77, 61.79, 75.2, 20.1, 65.91, 61, 10.4, 77.95, 63, 84.2, 73.22, 51.8, 66.78, 71.46, 73.4, 29.1, 59, 53.01, None, 30.2, 57.58, 77, 66.2, 30.74, 73.99],64,1,8.05
2122090,Pevek,RU,69.7,170.31,            [77, 70, 1.72, None, 84.2, 42.8, 48, 82.4, 77, None, 50, 60.8, 51.8, 55, 50, 66.2, 48.99, 73.98, 53.6, 44.6, 55, None, 71.6, 21.76, 38.97, 77, 61.79, 75.2, 20.1, 65.91, 61, 10.4, 77.95, 63, 84.2, 73.22, 51.8, 66.78, 71.46, 73.4, 29.1, 59, 53.01, None, 30.2, 57.58, 77, 66.2, 30.74, 73.99, None, 17.8],93,96,7.27
2014624,Udachny,RU,66.42,112.4,            [77, 70, 1.72, None, 84.2, 42.8, 48, 82.4, 77, None, 50, 60.8, 51.8, 55, 50, 66.2, 48.99, 73.98, 53.6, 44.6, 55, None, 71.6, 21.76, 38.97, 77, 61.79, 75.2, 20.1, 65.91, 61, 10.4, 77.95, 63, 84.2, 73.22, 51.8, 66.78, 71.46, 73.4, 29.1, 59, 53.01, None, 30.2, 57.58, 77, 66.2, 30.74, 73.99, None, 17.8, 14],92,90,8.95
6165406,Thompson,CA,55.74,-97.86,            [77, 70, 1.72, None, 84.2, 42.8, 48, 82.4, 77, None, 50, 60.8, 51.8, 55, 50, 66.2, 48.99, 73.98, 53.6, 44.6, 55, None, 71.6, 21.76, 38.97, 77, 61.79, 75.2, 20.1, 65.91, 61, 10.4, 77.95, 63, 84.2, 73.22, 51.8, 66.78, 71.46, 73.4, 29.1, 59, 53.01, None, 30.2, 57.58, 77, 66.2, 30.74, 73.99, None, 17.8, 14, None, 19.4],85,75,12.75
964432,Port Alfred,ZA,-33.59,26.89,            [77, 70, 1.72, None, 84.2, 42.8, 48, 82.4, 77, None, 50, 60.8, 51.8, 55, 50, 66.2, 48.99, 73.98, 53.6, 44.6, 55, None, 71.6, 21.76, 38.97, 77, 61.79, 75.2, 20.1, 65.91, 61, 10.4, 77.95, 63, 84.2, 73.22, 51.8, 66.78, 71.46, 73.4, 29.1, 59, 53.01, None, 30.2, 57.58, 77, 66.2, 30.74, 73.99, None, 17.8, 14, None, 19.4, 61.54],60,100,7.02
3928679,Sicuani,PE,-14.27,-71.23,            [77, 70, 1.72, None, 84.2, 42.8, 48, 82.4, 77, None, 50, 60.8, 51.8, 55, 50, 66.2, 48.99, 73.98, 53.6, 44.6, 55, None, 71.6, 21.76, 38.97, 77, 61.79, 75.2, 20.1, 65.91, 61, 10.4, 77.95, 63, 84.2, 73.22, 51.8, 66.78, 71.46, 73.4, 29.1, 59, 53.01, None, 30.2, 57.58, 77, 66.2, 30.74, 73.99, None, 17.8, 14, None, 19.4, 61.54, 63.75],33,96,8.99
2016412,Smidovich,RU,48.6,133.82,            [77, 70, 1.72, None, 84.2, 42.8, 48, 82.4, 77, None, 50, 60.8, 51.8, 55, 50, 66.2, 48.99, 73.98, 53.6, 44.6, 55, None, 71.6, 21.76, 38.97, 77, 61.79, 75.2, 20.1, 65.91, 61, 10.4, 77.95, 63, 84.2, 73.22, 51.8, 66.78, 71.46, 73.4, 29.1, 59, 53.01, None, 30.2, 57.58, 77, 66.2, 30.74, 73.99, None, 17.8, 14, None, 19.4, 61.54, 63.75, 71.6, None, 15.28],81,0,6.6
3372707,Ribeira Grande,PT,38.52,-28.7,            [77, 70, 1.72, None, 84.2, 42.8, 48, 82.4, 77, None, 50, 60.8, 51.8, 55, 50, 66.2, 48.99, 73.98, 53.6, 44.6, 55, None, 71.6, 21.76, 38.97, 77, 61.79, 75.2, 20.1, 65.91, 61, 10.4, 77.95, 63, 84.2, 73.22, 51.8, 66.78, 71.46, 73.4, 29.1, 59, 53.01, None, 30.2, 57.58, 77, 66.2, 30.74, 73.99, None, 17.8, 14, None, 19.4, 61.54, 63.75, 71.6, None, 15.28, 66.2],82,75,19.46
3980125,Villa Unión,MX,23.2,-106.23,            [77, 70, 1.72, None, 84.2, 42.8, 48, 82.4, 77, None, 50, 60.8, 51.8, 55, 50, 66.2, 48.99, 73.98, 53.6, 44.6, 55, None, 71.6, 21.76, 38.97, 77, 61.79, 75.2, 20.1, 65.91, 61, 10.4, 77.95, 63, 84.2, 73.22, 51.8, 66.78, 71.46, 73.4, 29.1, 59, 53.01, None, 30.2, 57.58, 77, 66.2, 30.74, 73.99, None, 17.8, 14, None, 19.4, 61.54, 63.75, 71.6, None, 15.28, 66.2, 89.6],43,5,9.17
3391889,Pitimbu,BR,-7.47,-34.81,            [77, 70, 1.72, None, 84.2, 42.8, 48, 82.4, 77, None, 50, 60.8, 51.8, 55, 50, 66.2, 48.99, 73.98, 53.6, 44.6, 55, None, 71.6, 21.76, 38.97, 77, 61.79, 75.2, 20.1, 65.91, 61, 10.4, 77.95, 63, 84.2, 73.22, 51.8, 66.78, 71.46, 73.4, 29.1, 59, 53.01, None, 30.2, 57.58, 77, 66.2, 30.74, 73.99, None, 17.8, 14, None, 19.4, 61.54, 63.75, 71.6, None, 15.28, 66.2, 89.6, 80.6],83,40,11.41
5282297,Bethel,US,41.37,-73.41,            [77, 70, 1.72, None, 84.2, 42.8, 48, 82.4, 77, None, 50, 60.8, 51.8, 55, 50, 66.2, 48.99, 73.98, 53.6, 44.6, 55, None, 71.6, 21.76, 38.97, 77, 61.79, 75.2, 20.1, 65.91, 61, 10.4, 77.95, 63, 84.2, 73.22, 51.8, 66.78, 71.46, 73.4, 29.1, 59, 53.01, None, 30.2, 57.58, 77, 66.2, 30.74, 73.99, None, 17.8, 14, None, 19.4, 61.54, 63.75, 71.6, None, 15.28, 66.2, 89.6, 80.6, None, 75.2],27,1,4.7
4031574,Provideniya,RU,64.38,-173.3,            [77, 70, 1.72, None, 84.2, 42.8, 48, 82.4, 77, None, 50, 60.8, 51.8, 55, 50, 66.2, 48.99, 73.98, 53.6, 44.6, 55, None, 71.6, 21.76, 38.97, 77, 61.79, 75.2, 20.1, 65.91, 61, 10.4, 77.95, 63, 84.2, 73.22, 51.8, 66.78, 71.46, 73.4, 29.1, 59, 53.01, None, 30.2, 57.58, 77, 66.2, 30.74, 73.99, None, 17.8, 14, None, 19.4, 61.54, 63.75, 71.6, None, 15.28, 66.2, 89.6, 80.6, None, 75.2, 33.8],100,90,17.9
546105,Nikolskoye,RU,59.7,30.79,            [77, 70, 1.72, None, 84.2, 42.8, 48, 82.4, 77, None, 50, 60.8, 51.8, 55, 50, 66.2, 48.99, 73.98, 53.6, 44.6, 55, None, 71.6, 21.76, 38.97, 77, 61.79, 75.2, 20.1, 65.91, 61, 10.4, 77.95, 63, 84.2, 73.22, 51.8, 66.78, 71.46, 73.4, 29.1, 59, 53.01, None, 30.2, 57.58, 77, 66.2, 30.74, 73.99, None, 17.8, 14, None, 19.4, 61.54, 63.75, 71.6, None, 15.28, 66.2, 89.6, 80.6, None, 75.2, 33.8, 39.2],80,20,15.66
462413,Zlynka,RU,52.43,31.74,            [77, 70, 1.72, None, 84.2, 42.8, 48, 82.4, 77, None, 50, 60.8, 51.8, 55, 50, 66.2, 48.99, 73.98, 53.6, 44.6, 55, None, 71.6, 21.76, 38.97, 77, 61.79, 75.2, 20.1, 65.91, 61, 10.4, 77.95, 63, 84.2, 73.22, 51.8, 66.78, 71.46, 73.4, 29.1, 59, 53.01, None, 30.2, 57.58, 77, 66.2, 30.74, 73.99, None, 17.8, 14, None, 19.4, 61.54, 63.75, 71.6, None, 15.28, 66.2, 89.6, 80.6, None, 75.2, 33.8, 39.2, None, 41],86,90,6.71
1106677,Bambous Virieux,MU,-20.34,57.76,            [77, 70, 1.72, None, 84.2, 42.8, 48, 82.4, 77, None, 50, 60.8, 51.8, 55, 50, 66.2, 48.99, 73.98, 53.6, 44.6, 55, None, 71.6, 21.76, 38.97, 77, 61.79, 75.2, 20.1, 65.91, 61, 10.4, 77.95, 63, 84.2, 73.22, 51.8, 66.78, 71.46, 73.4, 29.1, 59, 53.01, None, 30.2, 57.58, 77, 66.2, 30.74, 73.99, None, 17.8, 14, None, 19.4, 61.54, 63.75, 71.6, None, 15.28, 66.2, 89.6, 80.6, None, 75.2, 33.8, 39.2, None, 41, 73.4],78,40,8.05
1563281,Tuy Hoa,VN,13.08,109.3,            [77, 70, 1.72, None, 84.2, 42.8, 48, 82.4, 77, None, 50, 60.8, 51.8, 55, 50, 66.2, 48.99, 73.98, 53.6, 44.6, 55, None, 71.6, 21.76, 38.97, 77, 61.79, 75.2, 20.1, 65.91, 61, 10.4, 77.95, 63, 84.2, 73.22, 51.8, 66.78, 71.46, 73.4, 29.1, 59, 53.01, None, 30.2, 57.58, 77, 66.2, 30.74, 73.99, None, 17.8, 14, None, 19.4, 61.54, 63.75, 71.6, None, 15.28, 66.2, 89.6, 80.6, None, 75.2, 33.8, 39.2, None, 41, 73.4, 77.31],90,100,31.09
2013465,Verkhoyansk,RU,67.54,133.38,            [77, 70, 1.72, None, 84.2, 42.8, 48, 82.4, 77, None, 50, 60.8, 51.8, 55, 50, 66.2, 48.99, 73.98, 53.6, 44.6, 55, None, 71.6, 21.76, 38.97, 77, 61.79, 75.2, 20.1, 65.91, 61, 10.4, 77.95, 63, 84.2, 73.22, 51.8, 66.78, 71.46, 73.4, 29.1, 59, 53.01, None, 30.2, 57.58, 77, 66.2, 30.74, 73.99, None, 17.8, 14, None, 19.4, 61.54, 63.75, 71.6, None, 15.28, 66.2, 89.6, 80.6, None, 75.2, 33.8, 39.2, None, 41, 73.4, 77.31, -26.41],80,0,2.55
3985710,Cabo San Lucas,MX,22.89,-109.91,            [77, 70, 1.72, None, 84.2, 42.8, 48, 82.4, 77, None, 50, 60.8, 51.8, 55, 50, 66.2, 48.99, 73.98, 53.6, 44.6, 55, None, 71.6, 21.76, 38.97, 77, 61.79, 75.2, 20.1, 65.91, 61, 10.4, 77.95, 63, 84.2, 73.22, 51.8, 66.78, 71.46, 73.4, 29.1, 59, 53.01, None, 30.2, 57.58, 77, 66.2, 30.74, 73.99, None, 17.8, 14, None, 19.4, 61.54, 63.75, 71.6, None, 15.28, 66.2, 89.6, 80.6, None, 75.2, 33.8, 39.2, None, 41, 73.4, 77.31, -26.41, 86],57,5,17.22
1282256,Hithadhoo,MV,-0.6,73.08,            [77, 70, 1.72, None, 84.2, 42.8, 48, 82.4, 77, None, 50, 60.8, 51.8, 55, 50, 66.2, 48.99, 73.98, 53.6, 44.6, 55, None, 71.6, 21.76, 38.97, 77, 61.79, 75.2, 20.1, 65.91, 61, 10.4, 77.95, 63, 84.2, 73.22, 51.8, 66.78, 71.46, 73.4, 29.1, 59, 53.01, None, 30.2, 57.58, 77, 66.2, 30.74, 73.99, None, 17.8, 14, None, 19.4, 61.54, 63.75, 71.6, None, 15.28, 66.2, 89.6, 80.6, None, 75.2, 33.8, 39.2, None, 41, 73.4, 77.31, -26.41, 86, 83.41],74,100,11.79
5557293,Sitka,US,57.05,-135.33,            [77, 70, 1.72, None, 84.2, 42.8, 48, 82.4, 77, None, 50, 60.8, 51.8, 55, 50, 66.2, 48.99, 73.98, 53.6, 44.6, 55, None, 71.6, 21.76, 38.97, 77, 61.79, 75.2, 20.1, 65.91, 61, 10.4, 77.95, 63, 84.2, 73.22, 51.8, 66.78, 71.46, 73.4, 29.1, 59, 53.01, None, 30.2, 57.58, 77, 66.2, 30.74, 73.99, None, 17.8, 14, None, 19.4, 61.54, 63.75, 71.6, None, 15.28, 66.2, 89.6, 80.6, None, 75.2, 33.8, 39.2, None, 41, 73.4, 77.31, -26.41, 86, 83.41, None, None, 42.8],75,90,4.7
5122534,Jamestown,US,42.1,-79.24,            [77, 70, 1.72, None, 84.2, 42.8, 48, 82.4, 77, None, 50, 60.8, 51.8, 55, 50, 66.2, 48.99, 73.98, 53.6, 44.6, 55, None, 71.6, 21.76, 38.97, 77, 61.79, 75.2, 20.1, 65.91, 61, 10.4, 77.95, 63, 84.2, 73.22, 51.8, 66.78, 71.46, 73.4, 29.1, 59, 53.01, None, 30.2, 57.58, 77, 66.2, 30.74, 73.99, None, 17.8, 14, None, 19.4, 61.54, 63.75, 71.6, None, 15.28, 66.2, 89.6, 80.6, None, 75.2, 33.8, 39.2, None, 41, 73.4, 77.31, -26.41, 86, 83.41, None, None, 42.8, 71.6],40,1,9.17
777019,Vardø,NO,70.37,31.11,            [77, 70, 1.72, None, 84.2, 42.8, 48, 82.4, 77, None, 50, 60.8, 51.8, 55, 50, 66.2, 48.99, 73.98, 53.6, 44.6, 55, None, 71.6, 21.76, 38.97, 77, 61.79, 75.2, 20.1, 65.91, 61, 10.4, 77.95, 63, 84.2, 73.22, 51.8, 66.78, 71.46, 73.4, 29.1, 59, 53.01, None, 30.2, 57.58, 77, 66.2, 30.74, 73.99, None, 17.8, 14, None, 19.4, 61.54, 63.75, 71.6, None, 15.28, 66.2, 89.6, 80.6, None, 75.2, 33.8, 39.2, None, 41, 73.4, 77.31, -26.41, 86, 83.41, None, None, 42.8, 71.6, 35.6],80,40,32.21
3347019,Mossamedes,AO,-15.2,12.15,            [77, 70, 1.72, None, 84.2, 42.8, 48, 82.4, 77, None, 50, 60.8, 51.8, 55, 50, 66.2, 48.99, 73.98, 53.6, 44.6, 55, None, 71.6, 21.76, 38.97, 77, 61.79, 75.2, 20.1, 65.91, 61, 10.4, 77.95, 63, 84.2, 73.22, 51.8, 66.78, 71.46, 73.4, 29.1, 59, 53.01, None, 30.2, 57.58, 77, 66.2, 30.74, 73.99, None, 17.8, 14, None, 19.4, 61.54, 63.75, 71.6, None, 15.28, 66.2, 89.6, 80.6, None, 75.2, 33.8, 39.2, None, 41, 73.4, 77.31, -26.41, 86, 83.41, None, None, 42.8, 71.6, 35.6, 72.19],74,3,3.65
2119538,Yelizovo,RU,53.19,158.38,            [77, 70, 1.72, None, 84.2, 42.8, 48, 82.4, 77, None, 50, 60.8, 51.8, 55, 50, 66.2, 48.99, 73.98, 53.6, 44.6, 55, None, 71.6, 21.76, 38.97, 77, 61.79, 75.2, 20.1, 65.91, 61, 10.4, 77.95, 63, 84.2, 73.22, 51.8, 66.78, 71.46, 73.4, 29.1, 59, 53.01, None, 30.2, 57.58, 77, 66.2, 30.74, 73.99, None, 17.8, 14, None, 19.4, 61.54, 63.75, 71.6, None, 15.28, 66.2, 89.6, 80.6, None, 75.2, 33.8, 39.2, None, 41, 73.4, 77.31, -26.41, 86, 83.41, None, None, 42.8, 71.6, 35.6, 72.19, 21.2],67,75,11.18
2132606,Samarai,PG,-10.62,150.67,            [77, 70, 1.72, None, 84.2, 42.8, 48, 82.4, 77, None, 50, 60.8, 51.8, 55, 50, 66.2, 48.99, 73.98, 53.6, 44.6, 55, None, 71.6, 21.76, 38.97, 77, 61.79, 75.2, 20.1, 65.91, 61, 10.4, 77.95, 63, 84.2, 73.22, 51.8, 66.78, 71.46, 73.4, 29.1, 59, 53.01, None, 30.2, 57.58, 77, 66.2, 30.74, 73.99, None, 17.8, 14, None, 19.4, 61.54, 63.75, 71.6, None, 15.28, 66.2, 89.6, 80.6, None, 75.2, 33.8, 39.2, None, 41, 73.4, 77.31, -26.41, 86, 83.41, None, None, 42.8, 71.6, 35.6, 72.19, 21.2, 79.84],83,100,13.85
1506268,Gornopravdinsk,RU,60.05,69.9,            [77, 70, 1.72, None, 84.2, 42.8, 48, 82.4, 77, None, 50, 60.8, 51.8, 55, 50, 66.2, 48.99, 73.98, 53.6, 44.6, 55, None, 71.6, 21.76, 38.97, 77, 61.79, 75.2, 20.1, 65.91, 61, 10.4, 77.95, 63, 84.2, 73.22, 51.8, 66.78, 71.46, 73.4, 29.1, 59, 53.01, None, 30.2, 57.58, 77, 66.2, 30.74, 73.99, None, 17.8, 14, None, 19.4, 61.54, 63.75, 71.6, None, 15.28, 66.2, 89.6, 80.6, None, 75.2, 33.8, 39.2, None, 41, 73.4, 77.31, -26.41, 86, 83.41, None, None, 42.8, 71.6, 35.6, 72.19, 21.2, 79.84, 25.36],98,93,6.58
4967563,Houlton,US,46.13,-67.84,            [77, 70, 1.72, None, 84.2, 42.8, 48, 82.4, 77, None, 50, 60.8, 51.8, 55, 50, 66.2, 48.99, 73.98, 53.6, 44.6, 55, None, 71.6, 21.76, 38.97, 77, 61.79, 75.2, 20.1, 65.91, 61, 10.4, 77.95, 63, 84.2, 73.22, 51.8, 66.78, 71.46, 73.4, 29.1, 59, 53.01, None, 30.2, 57.58, 77, 66.2, 30.74, 73.99, None, 17.8, 14, None, 19.4, 61.54, 63.75, 71.6, None, 15.28, 66.2, 89.6, 80.6, None, 75.2, 33.8, 39.2, None, 41, 73.4, 77.31, -26.41, 86, 83.41, None, None, 42.8, 71.6, 35.6, 72.19, 21.2, 79.84, 25.36, 66.99],55,1,9.17
2018553,Ol'ga,RU,43.74,135.29,            [77, 70, 1.72, None, 84.2, 42.8, 48, 82.4, 77, None, 50, 60.8, 51.8, 55, 50, 66.2, 48.99, 73.98, 53.6, 44.6, 55, None, 71.6, 21.76, 38.97, 77, 61.79, 75.2, 20.1, 65.91, 61, 10.4, 77.95, 63, 84.2, 73.22, 51.8, 66.78, 71.46, 73.4, 29.1, 59, 53.01, None, 30.2, 57.58, 77, 66.2, 30.74, 73.99, None, 17.8, 14, None, 19.4, 61.54, 63.75, 71.6, None, 15.28, 66.2, 89.6, 80.6, None, 75.2, 33.8, 39.2, None, 41, 73.4, 77.31, -26.41, 86, 83.41, None, None, 42.8, 71.6, 35.6, 72.19, 21.2, 79.84, 25.36, 66.99, 22.8],81,0,11.14
2264557,Ponta do Sol,PT,32.67,-17.1,            [77, 70, 1.72, None, 84.2, 42.8, 48, 82.4, 77, None, 50, 60.8, 51.8, 55, 50, 66.2, 48.99, 73.98, 53.6, 44.6, 55, None, 71.6, 21.76, 38.97, 77, 61.79, 75.2, 20.1, 65.91, 61, 10.4, 77.95, 63, 84.2, 73.22, 51.8, 66.78, 71.46, 73.4, 29.1, 59, 53.01, None, 30.2, 57.58, 77, 66.2, 30.74, 73.99, None, 17.8, 14, None, 19.4, 61.54, 63.75, 71.6, None, 15.28, 66.2, 89.6, 80.6, None, 75.2, 33.8, 39.2, None, 41, 73.4, 77.31, -26.41, 86, 83.41, None, None, 42.8, 71.6, 35.6, 72.19, 21.2, 79.84, 25.36, 66.99, 22.8, 64.4],72,40,8.05
3833367,Ushuaia,AR,-54.8,-68.3,            [77, 70, 1.72, None, 84.2, 42.8, 48, 82.4, 77, None, 50, 60.8, 51.8, 55, 50, 66.2, 48.99, 73.98, 53.6, 44.6, 55, None, 71.6, 21.76, 38.97, 77, 61.79, 75.2, 20.1, 65.91, 61, 10.4, 77.95, 63, 84.2, 73.22, 51.8, 66.78, 71.46, 73.4, 29.1, 59, 53.01, None, 30.2, 57.58, 77, 66.2, 30.74, 73.99, None, 17.8, 14, None, 19.4, 61.54, 63.75, 71.6, None, 15.28, 66.2, 89.6, 80.6, None, 75.2, 33.8, 39.2, None, 41, 73.4, 77.31, -26.41, 86, 83.41, None, None, 42.8, 71.6, 35.6, 72.19, 21.2, 79.84, 25.36, 66.99, 22.8, 64.4, 51.8],37,0,16.11
4535783,El Reno,US,35.53,-97.95,            [77, 70, 1.72, None, 84.2, 42.8, 48, 82.4, 77, None, 50, 60.8, 51.8, 55, 50, 66.2, 48.99, 73.98, 53.6, 44.6, 55, None, 71.6, 21.76, 38.97, 77, 61.79, 75.2, 20.1, 65.91, 61, 10.4, 77.95, 63, 84.2, 73.22, 51.8, 66.78, 71.46, 73.4, 29.1, 59, 53.01, None, 30.2, 57.58, 77, 66.2, 30.74, 73.99, None, 17.8, 14, None, 19.4, 61.54, 63.75, 71.6, None, 15.28, 66.2, 89.6, 80.6, None, 75.2, 33.8, 39.2, None, 41, 73.4, 77.31, -26.41, 86, 83.41, None, None, 42.8, 71.6, 35.6, 72.19, 21.2, 79.84, 25.36, 66.99, 22.8, 64.4, 51.8, 70],82,90,18.34
2094342,Kavieng,PG,-2.57,150.8,            [77, 70, 1.72, None, 84.2, 42.8, 48, 82.4, 77, None, 50, 60.8, 51.8, 55, 50, 66.2, 48.99, 73.98, 53.6, 44.6, 55, None, 71.6, 21.76, 38.97, 77, 61.79, 75.2, 20.1, 65.91, 61, 10.4, 77.95, 63, 84.2, 73.22, 51.8, 66.78, 71.46, 73.4, 29.1, 59, 53.01, None, 30.2, 57.58, 77, 66.2, 30.74, 73.99, None, 17.8, 14, None, 19.4, 61.54, 63.75, 71.6, None, 15.28, 66.2, 89.6, 80.6, None, 75.2, 33.8, 39.2, None, 41, 73.4, 77.31, -26.41, 86, 83.41, None, None, 42.8, 71.6, 35.6, 72.19, 21.2, 79.84, 25.36, 66.99, 22.8, 64.4, 51.8, 70, 81.81],74,100,5.06
286621,Salalah,OM,17.02,54.09,            [77, 70, 1.72, None, 84.2, 42.8, 48, 82.4, 77, None, 50, 60.8, 51.8, 55, 50, 66.2, 48.99, 73.98, 53.6, 44.6, 55, None, 71.6, 21.76, 38.97, 77, 61.79, 75.2, 20.1, 65.91, 61, 10.4, 77.95, 63, 84.2, 73.22, 51.8, 66.78, 71.46, 73.4, 29.1, 59, 53.01, None, 30.2, 57.58, 77, 66.2, 30.74, 73.99, None, 17.8, 14, None, 19.4, 61.54, 63.75, 71.6, None, 15.28, 66.2, 89.6, 80.6, None, 75.2, 33.8, 39.2, None, 41, 73.4, 77.31, -26.41, 86, 83.41, None, None, 42.8, 71.6, 35.6, 72.19, 21.2, 79.84, 25.36, 66.99, 22.8, 64.4, 51.8, 70, 81.81, 77],57,0,4.7
3471451,Arraial do Cabo,BR,-22.97,-42.03,            [77, 70, 1.72, None, 84.2, 42.8, 48, 82.4, 77, None, 50, 60.8, 51.8, 55, 50, 66.2, 48.99, 73.98, 53.6, 44.6, 55, None, 71.6, 21.76, 38.97, 77, 61.79, 75.2, 20.1, 65.91, 61, 10.4, 77.95, 63, 84.2, 73.22, 51.8, 66.78, 71.46, 73.4, 29.1, 59, 53.01, None, 30.2, 57.58, 77, 66.2, 30.74, 73.99, None, 17.8, 14, None, 19.4, 61.54, 63.75, 71.6, None, 15.28, 66.2, 89.6, 80.6, None, 75.2, 33.8, 39.2, None, 41, 73.4, 77.31, -26.41, 86, 83.41, None, None, 42.8, 71.6, 35.6, 72.19, 21.2, 79.84, 25.36, 66.99, 22.8, 64.4, 51.8, 70, 81.81, 77, 80.6],83,75,11.41
4034551,Faanui,PF,-16.48,-151.75,            [77, 70, 1.72, None, 84.2, 42.8, 48, 82.4, 77, None, 50, 60.8, 51.8, 55, 50, 66.2, 48.99, 73.98, 53.6, 44.6, 55, None, 71.6, 21.76, 38.97, 77, 61.79, 75.2, 20.1, 65.91, 61, 10.4, 77.95, 63, 84.2, 73.22, 51.8, 66.78, 71.46, 73.4, 29.1, 59, 53.01, None, 30.2, 57.58, 77, 66.2, 30.74, 73.99, None, 17.8, 14, None, 19.4, 61.54, 63.75, 71.6, None, 15.28, 66.2, 89.6, 80.6, None, 75.2, 33.8, 39.2, None, 41, 73.4, 77.31, -26.41, 86, 83.41, None, None, 42.8, 71.6, 35.6, 72.19, 21.2, 79.84, 25.36, 66.99, 22.8, 64.4, 51.8, 70, 81.81, 77, 80.6, None, 78.33],81,100,15.14
1804162,Yongzhou,CN,26.46,111.6,            [77, 70, 1.72, None, 84.2, 42.8, 48, 82.4, 77, None, 50, 60.8, 51.8, 55, 50, 66.2, 48.99, 73.98, 53.6, 44.6, 55, None, 71.6, 21.76, 38.97, 77, 61.79, 75.2, 20.1, 65.91, 61, 10.4, 77.95, 63, 84.2, 73.22, 51.8, 66.78, 71.46, 73.4, 29.1, 59, 53.01, None, 30.2, 57.58, 77, 66.2, 30.74, 73.99, None, 17.8, 14, None, 19.4, 61.54, 63.75, 71.6, None, 15.28, 66.2, 89.6, 80.6, None, 75.2, 33.8, 39.2, None, 41, 73.4, 77.31, -26.41, 86, 83.41, None, None, 42.8, 71.6, 35.6, 72.19, 21.2, 79.84, 25.36, 66.99, 22.8, 64.4, 51.8, 70, 81.81, 77, 80.6, None, 78.33, 55.42],64,0,2.21
2208248,Kaitangata,NZ,-46.28,169.85,            [77, 70, 1.72, None, 84.2, 42.8, 48, 82.4, 77, None, 50, 60.8, 51.8, 55, 50, 66.2, 48.99, 73.98, 53.6, 44.6, 55, None, 71.6, 21.76, 38.97, 77, 61.79, 75.2, 20.1, 65.91, 61, 10.4, 77.95, 63, 84.2, 73.22, 51.8, 66.78, 71.46, 73.4, 29.1, 59, 53.01, None, 30.2, 57.58, 77, 66.2, 30.74, 73.99, None, 17.8, 14, None, 19.4, 61.54, 63.75, 71.6, None, 15.28, 66.2, 89.6, 80.6, None, 75.2, 33.8, 39.2, None, 41, 73.4, 77.31, -26.41, 86, 83.41, None, None, 42.8, 71.6, 35.6, 72.19, 21.2, 79.84, 25.36, 66.99, 22.8, 64.4, 51.8, 70, 81.81, 77, 80.6, None, 78.33, 55.42, 52],69,6,1.01
4513583,Hamilton,US,39.18,-84.53,            [77, 70, 1.72, None, 84.2, 42.8, 48, 82.4, 77, None, 50, 60.8, 51.8, 55, 50, 66.2, 48.99, 73.98, 53.6, 44.6, 55, None, 71.6, 21.76, 38.97, 77, 61.79, 75.2, 20.1, 65.91, 61, 10.4, 77.95, 63, 84.2, 73.22, 51.8, 66.78, 71.46, 73.4, 29.1, 59, 53.01, None, 30.2, 57.58, 77, 66.2, 30.74, 73.99, None, 17.8, 14, None, 19.4, 61.54, 63.75, 71.6, None, 15.28, 66.2, 89.6, 80.6, None, 75.2, 33.8, 39.2, None, 41, 73.4, 77.31, -26.41, 86, 83.41, None, None, 42.8, 71.6, 35.6, 72.19, 21.2, 79.84, 25.36, 66.99, 22.8, 64.4, 51.8, 70, 81.81, 77, 80.6, None, 78.33, 55.42, 52, 79],44,1,6.93
5848280,Kapaa,US,22.08,-159.32,            [77, 70, 1.72, None, 84.2, 42.8, 48, 82.4, 77, None, 50, 60.8, 51.8, 55, 50, 66.2, 48.99, 73.98, 53.6, 44.6, 55, None, 71.6, 21.76, 38.97, 77, 61.79, 75.2, 20.1, 65.91, 61, 10.4, 77.95, 63, 84.2, 73.22, 51.8, 66.78, 71.46, 73.4, 29.1, 59, 53.01, None, 30.2, 57.58, 77, 66.2, 30.74, 73.99, None, 17.8, 14, None, 19.4, 61.54, 63.75, 71.6, None, 15.28, 66.2, 89.6, 80.6, None, 75.2, 33.8, 39.2, None, 41, 73.4, 77.31, -26.41, 86, 83.41, None, None, 42.8, 71.6, 35.6, 72.19, 21.2, 79.84, 25.36, 66.99, 22.8, 64.4, 51.8, 70, 81.81, 77, 80.6, None, 78.33, 55.42, 52, 79, 80.6],78,40,14.99
2128975,Nemuro,JP,43.32,145.57,            [77, 70, 1.72, None, 84.2, 42.8, 48, 82.4, 77, None, 50, 60.8, 51.8, 55, 50, 66.2, 48.99, 73.98, 53.6, 44.6, 55, None, 71.6, 21.76, 38.97, 77, 61.79, 75.2, 20.1, 65.91, 61, 10.4, 77.95, 63, 84.2, 73.22, 51.8, 66.78, 71.46, 73.4, 29.1, 59, 53.01, None, 30.2, 57.58, 77, 66.2, 30.74, 73.99, None, 17.8, 14, None, 19.4, 61.54, 63.75, 71.6, None, 15.28, 66.2, 89.6, 80.6, None, 75.2, 33.8, 39.2, None, 41, 73.4, 77.31, -26.41, 86, 83.41, None, None, 42.8, 71.6, 35.6, 72.19, 21.2, 79.84, 25.36, 66.99, 22.8, 64.4, 51.8, 70, 81.81, 77, 80.6, None, 78.33, 55.42, 52, 79, 80.6, None, 37.08],79,95,8.77
110690,Faya,SA,18.39,42.45,            [77, 70, 1.72, None, 84.2, 42.8, 48, 82.4, 77, None, 50, 60.8, 51.8, 55, 50, 66.2, 48.99, 73.98, 53.6, 44.6, 55, None, 71.6, 21.76, 38.97, 77, 61.79, 75.2, 20.1, 65.91, 61, 10.4, 77.95, 63, 84.2, 73.22, 51.8, 66.78, 71.46, 73.4, 29.1, 59, 53.01, None, 30.2, 57.58, 77, 66.2, 30.74, 73.99, None, 17.8, 14, None, 19.4, 61.54, 63.75, 71.6, None, 15.28, 66.2, 89.6, 80.6, None, 75.2, 33.8, 39.2, None, 41, 73.4, 77.31, -26.41, 86, 83.41, None, None, 42.8, 71.6, 35.6, 72.19, 21.2, 79.84, 25.36, 66.99, 22.8, 64.4, 51.8, 70, 81.81, 77, 80.6, None, 78.33, 55.42, 52, 79, 80.6, None, 37.08, 64.4],82,0,4.92
2255564,Ouésso,CG,1.61,16.05,            [77, 70, 1.72, None, 84.2, 42.8, 48, 82.4, 77, None, 50, 60.8, 51.8, 55, 50, 66.2, 48.99, 73.98, 53.6, 44.6, 55, None, 71.6, 21.76, 38.97, 77, 61.79, 75.2, 20.1, 65.91, 61, 10.4, 77.95, 63, 84.2, 73.22, 51.8, 66.78, 71.46, 73.4, 29.1, 59, 53.01, None, 30.2, 57.58, 77, 66.2, 30.74, 73.99, None, 17.8, 14, None, 19.4, 61.54, 63.75, 71.6, None, 15.28, 66.2, 89.6, 80.6, None, 75.2, 33.8, 39.2, None, 41, 73.4, 77.31, -26.41, 86, 83.41, None, None, 42.8, 71.6, 35.6, 72.19, 21.2, 79.84, 25.36, 66.99, 22.8, 64.4, 51.8, 70, 81.81, 77, 80.6, None, 78.33, 55.42, 52, 79, 80.6, None, 37.08, 64.4, 71.17],96,100,5.64
2654970,Brae,GB,60.4,-1.35,            [77, 70, 1.72, None, 84.2, 42.8, 48, 82.4, 77, None, 50, 60.8, 51.8, 55, 50, 66.2, 48.99, 73.98, 53.6, 44.6, 55, None, 71.6, 21.76, 38.97, 77, 61.79, 75.2, 20.1, 65.91, 61, 10.4, 77.95, 63, 84.2, 73.22, 51.8, 66.78, 71.46, 73.4, 29.1, 59, 53.01, None, 30.2, 57.58, 77, 66.2, 30.74, 73.99, None, 17.8, 14, None, 19.4, 61.54, 63.75, 71.6, None, 15.28, 66.2, 89.6, 80.6, None, 75.2, 33.8, 39.2, None, 41, 73.4, 77.31, -26.41, 86, 83.41, None, None, 42.8, 71.6, 35.6, 72.19, 21.2, 79.84, 25.36, 66.99, 22.8, 64.4, 51.8, 70, 81.81, 77, 80.6, None, 78.33, 55.42, 52, 79, 80.6, None, 37.08, 64.4, 71.17, 51.8],93,100,11.41
5962442,Goderich,CA,43.75,-81.72,            [77, 70, 1.72, None, 84.2, 42.8, 48, 82.4, 77, None, 50, 60.8, 51.8, 55, 50, 66.2, 48.99, 73.98, 53.6, 44.6, 55, None, 71.6, 21.76, 38.97, 77, 61.79, 75.2, 20.1, 65.91, 61, 10.4, 77.95, 63, 84.2, 73.22, 51.8, 66.78, 71.46, 73.4, 29.1, 59, 53.01, None, 30.2, 57.58, 77, 66.2, 30.74, 73.99, None, 17.8, 14, None, 19.4, 61.54, 63.75, 71.6, None, 15.28, 66.2, 89.6, 80.6, None, 75.2, 33.8, 39.2, None, 41, 73.4, 77.31, -26.41, 86, 83.41, None, None, 42.8, 71.6, 35.6, 72.19, 21.2, 79.84, 25.36, 66.99, 22.8, 64.4, 51.8, 70, 81.81, 77, 80.6, None, 78.33, 55.42, 52, 79, 80.6, None, 37.08, 64.4, 71.17, 51.8, 73.4],38,0,13.87
1735106,George Town,MY,5.41,100.34,            [77, 70, 1.72, None, 84.2, 42.8, 48, 82.4, 77, None, 50, 60.8, 51.8, 55, 50, 66.2, 48.99, 73.98, 53.6, 44.6, 55, None, 71.6, 21.76, 38.97, 77, 61.79, 75.2, 20.1, 65.91, 61, 10.4, 77.95, 63, 84.2, 73.22, 51.8, 66.78, 71.46, 73.4, 29.1, 59, 53.01, None, 30.2, 57.58, 77, 66.2, 30.74, 73.99, None, 17.8, 14, None, 19.4, 61.54, 63.75, 71.6, None, 15.28, 66.2, 89.6, 80.6, None, 75.2, 33.8, 39.2, None, 41, 73.4, 77.31, -26.41, 86, 83.41, None, None, 42.8, 71.6, 35.6, 72.19, 21.2, 79.84, 25.36, 66.99, 22.8, 64.4, 51.8, 70, 81.81, 77, 80.6, None, 78.33, 55.42, 52, 79, 80.6, None, 37.08, 64.4, 71.17, 51.8, 73.4, 77],94,20,4.7
5110365,Broome,US,42.25,-75.83,            [77, 70, 1.72, None, 84.2, 42.8, 48, 82.4, 77, None, 50, 60.8, 51.8, 55, 50, 66.2, 48.99, 73.98, 53.6, 44.6, 55, None, 71.6, 21.76, 38.97, 77, 61.79, 75.2, 20.1, 65.91, 61, 10.4, 77.95, 63, 84.2, 73.22, 51.8, 66.78, 71.46, 73.4, 29.1, 59, 53.01, None, 30.2, 57.58, 77, 66.2, 30.74, 73.99, None, 17.8, 14, None, 19.4, 61.54, 63.75, 71.6, None, 15.28, 66.2, 89.6, 80.6, None, 75.2, 33.8, 39.2, None, 41, 73.4, 77.31, -26.41, 86, 83.41, None, None, 42.8, 71.6, 35.6, 72.19, 21.2, 79.84, 25.36, 66.99, 22.8, 64.4, 51.8, 70, 81.81, 77, 80.6, None, 78.33, 55.42, 52, 79, 80.6, None, 37.08, 64.4, 71.17, 51.8, 73.4, 77, 71.6],35,1,4.7
3466704,Castro,BR,-24.79,-50.01,            [77, 70, 1.72, None, 84.2, 42.8, 48, 82.4, 77, None, 50, 60.8, 51.8, 55, 50, 66.2, 48.99, 73.98, 53.6, 44.6, 55, None, 71.6, 21.76, 38.97, 77, 61.79, 75.2, 20.1, 65.91, 61, 10.4, 77.95, 63, 84.2, 73.22, 51.8, 66.78, 71.46, 73.4, 29.1, 59, 53.01, None, 30.2, 57.58, 77, 66.2, 30.74, 73.99, None, 17.8, 14, None, 19.4, 61.54, 63.75, 71.6, None, 15.28, 66.2, 89.6, 80.6, None, 75.2, 33.8, 39.2, None, 41, 73.4, 77.31, -26.41, 86, 83.41, None, None, 42.8, 71.6, 35.6, 72.19, 21.2, 79.84, 25.36, 66.99, 22.8, 64.4, 51.8, 70, 81.81, 77, 80.6, None, 78.33, 55.42, 52, 79, 80.6, None, 37.08, 64.4, 71.17, 51.8, 73.4, 77, 71.6, 81.14],49,29,2.59
2110227,Butaritari,KI,3.07,172.79,            [77, 70, 1.72, None, 84.2, 42.8, 48, 82.4, 77, None, 50, 60.8, 51.8, 55, 50, 66.2, 48.99, 73.98, 53.6, 44.6, 55, None, 71.6, 21.76, 38.97, 77, 61.79, 75.2, 20.1, 65.91, 61, 10.4, 77.95, 63, 84.2, 73.22, 51.8, 66.78, 71.46, 73.4, 29.1, 59, 53.01, None, 30.2, 57.58, 77, 66.2, 30.74, 73.99, None, 17.8, 14, None, 19.4, 61.54, 63.75, 71.6, None, 15.28, 66.2, 89.6, 80.6, None, 75.2, 33.8, 39.2, None, 41, 73.4, 77.31, -26.41, 86, 83.41, None, None, 42.8, 71.6, 35.6, 72.19, 21.2, 79.84, 25.36, 66.99, 22.8, 64.4, 51.8, 70, 81.81, 77, 80.6, None, 78.33, 55.42, 52, 79, 80.6, None, 37.08, 64.4, 71.17, 51.8, 73.4, 77, 71.6, 81.14, 82.4],73,100,11.77
5354943,Half Moon Bay,US,37.46,-122.43,            [77, 70, 1.72, None, 84.2, 42.8, 48, 82.4, 77, None, 50, 60.8, 51.8, 55, 50, 66.2, 48.99, 73.98, 53.6, 44.6, 55, None, 71.6, 21.76, 38.97, 77, 61.79, 75.2, 20.1, 65.91, 61, 10.4, 77.95, 63, 84.2, 73.22, 51.8, 66.78, 71.46, 73.4, 29.1, 59, 53.01, None, 30.2, 57.58, 77, 66.2, 30.74, 73.99, None, 17.8, 14, None, 19.4, 61.54, 63.75, 71.6, None, 15.28, 66.2, 89.6, 80.6, None, 75.2, 33.8, 39.2, None, 41, 73.4, 77.31, -26.41, 86, 83.41, None, None, 42.8, 71.6, 35.6, 72.19, 21.2, 79.84, 25.36, 66.99, 22.8, 64.4, 51.8, 70, 81.81, 77, 80.6, None, 78.33, 55.42, 52, 79, 80.6, None, 37.08, 64.4, 71.17, 51.8, 73.4, 77, 71.6, 81.14, 82.4, 57.99],35,1,8.05
2021041,Kyra,RU,49.58,111.98,            [77, 70, 1.72, None, 84.2, 42.8, 48, 82.4, 77, None, 50, 60.8, 51.8, 55, 50, 66.2, 48.99, 73.98, 53.6, 44.6, 55, None, 71.6, 21.76, 38.97, 77, 61.79, 75.2, 20.1, 65.91, 61, 10.4, 77.95, 63, 84.2, 73.22, 51.8, 66.78, 71.46, 73.4, 29.1, 59, 53.01, None, 30.2, 57.58, 77, 66.2, 30.74, 73.99, None, 17.8, 14, None, 19.4, 61.54, 63.75, 71.6, None, 15.28, 66.2, 89.6, 80.6, None, 75.2, 33.8, 39.2, None, 41, 73.4, 77.31, -26.41, 86, 83.41, None, None, 42.8, 71.6, 35.6, 72.19, 21.2, 79.84, 25.36, 66.99, 22.8, 64.4, 51.8, 70, 81.81, 77, 80.6, None, 78.33, 55.42, 52, 79, 80.6, None, 37.08, 64.4, 71.17, 51.8, 73.4, 77, 71.6, 81.14, 82.4, 57.99, 25.12],91,0,2.64
1819729,Hong Kong,HK,22.29,114.16,            [77, 70, 1.72, None, 84.2, 42.8, 48, 82.4, 77, None, 50, 60.8, 51.8, 55, 50, 66.2, 48.99, 73.98, 53.6, 44.6, 55, None, 71.6, 21.76, 38.97, 77, 61.79, 75.2, 20.1, 65.91, 61, 10.4, 77.95, 63, 84.2, 73.22, 51.8, 66.78, 71.46, 73.4, 29.1, 59, 53.01, None, 30.2, 57.58, 77, 66.2, 30.74, 73.99, None, 17.8, 14, None, 19.4, 61.54, 63.75, 71.6, None, 15.28, 66.2, 89.6, 80.6, None, 75.2, 33.8, 39.2, None, 41, 73.4, 77.31, -26.41, 86, 83.41, None, None, 42.8, 71.6, 35.6, 72.19, 21.2, 79.84, 25.36, 66.99, 22.8, 64.4, 51.8, 70, 81.81, 77, 80.6, None, 78.33, 55.42, 52, 79, 80.6, None, 37.08, 64.4, 71.17, 51.8, 73.4, 77, 71.6, 81.14, 82.4, 57.99, 25.12, 73],70,100,1.99
6111862,Port Hardy,CA,50.7,-127.42,            [77, 70, 1.72, None, 84.2, 42.8, 48, 82.4, 77, None, 50, 60.8, 51.8, 55, 50, 66.2, 48.99, 73.98, 53.6, 44.6, 55, None, 71.6, 21.76, 38.97, 77, 61.79, 75.2, 20.1, 65.91, 61, 10.4, 77.95, 63, 84.2, 73.22, 51.8, 66.78, 71.46, 73.4, 29.1, 59, 53.01, None, 30.2, 57.58, 77, 66.2, 30.74, 73.99, None, 17.8, 14, None, 19.4, 61.54, 63.75, 71.6, None, 15.28, 66.2, 89.6, 80.6, None, 75.2, 33.8, 39.2, None, 41, 73.4, 77.31, -26.41, 86, 83.41, None, None, 42.8, 71.6, 35.6, 72.19, 21.2, 79.84, 25.36, 66.99, 22.8, 64.4, 51.8, 70, 81.81, 77, 80.6, None, 78.33, 55.42, 52, 79, 80.6, None, 37.08, 64.4, 71.17, 51.8, 73.4, 77, 71.6, 81.14, 82.4, 57.99, 25.12, 73, 41],86,90,25.28
3407762,Amapá,BR,1,-52,            [77, 70, 1.72, None, 84.2, 42.8, 48, 82.4, 77, None, 50, 60.8, 51.8, 55, 50, 66.2, 48.99, 73.98, 53.6, 44.6, 55, None, 71.6, 21.76, 38.97, 77, 61.79, 75.2, 20.1, 65.91, 61, 10.4, 77.95, 63, 84.2, 73.22, 51.8, 66.78, 71.46, 73.4, 29.1, 59, 53.01, None, 30.2, 57.58, 77, 66.2, 30.74, 73.99, None, 17.8, 14, None, 19.4, 61.54, 63.75, 71.6, None, 15.28, 66.2, 89.6, 80.6, None, 75.2, 33.8, 39.2, None, 41, 73.4, 77.31, -26.41, 86, 83.41, None, None, 42.8, 71.6, 35.6, 72.19, 21.2, 79.84, 25.36, 66.99, 22.8, 64.4, 51.8, 70, 81.81, 77, 80.6, None, 78.33, 55.42, 52, 79, 80.6, None, 37.08, 64.4, 71.17, 51.8, 73.4, 77, 71.6, 81.14, 82.4, 57.99, 25.12, 73, 41, 91.45],41,42,4.41
2122104,Petropavlovsk-Kamchatskiy,RU,53.05,158.65,            [77, 70, 1.72, None, 84.2, 42.8, 48, 82.4, 77, None, 50, 60.8, 51.8, 55, 50, 66.2, 48.99, 73.98, 53.6, 44.6, 55, None, 71.6, 21.76, 38.97, 77, 61.79, 75.2, 20.1, 65.91, 61, 10.4, 77.95, 63, 84.2, 73.22, 51.8, 66.78, 71.46, 73.4, 29.1, 59, 53.01, None, 30.2, 57.58, 77, 66.2, 30.74, 73.99, None, 17.8, 14, None, 19.4, 61.54, 63.75, 71.6, None, 15.28, 66.2, 89.6, 80.6, None, 75.2, 33.8, 39.2, None, 41, 73.4, 77.31, -26.41, 86, 83.41, None, None, 42.8, 71.6, 35.6, 72.19, 21.2, 79.84, 25.36, 66.99, 22.8, 64.4, 51.8, 70, 81.81, 77, 80.6, None, 78.33, 55.42, 52, 79, 80.6, None, 37.08, 64.4, 71.17, 51.8, 73.4, 77, 71.6, 81.14, 82.4, 57.99, 25.12, 73, 41, 91.45, 21.2],67,100,11.18
2015306,Tiksi,RU,71.69,128.87,            [77, 70, 1.72, None, 84.2, 42.8, 48, 82.4, 77, None, 50, 60.8, 51.8, 55, 50, 66.2, 48.99, 73.98, 53.6, 44.6, 55, None, 71.6, 21.76, 38.97, 77, 61.79, 75.2, 20.1, 65.91, 61, 10.4, 77.95, 63, 84.2, 73.22, 51.8, 66.78, 71.46, 73.4, 29.1, 59, 53.01, None, 30.2, 57.58, 77, 66.2, 30.74, 73.99, None, 17.8, 14, None, 19.4, 61.54, 63.75, 71.6, None, 15.28, 66.2, 89.6, 80.6, None, 75.2, 33.8, 39.2, None, 41, 73.4, 77.31, -26.41, 86, 83.41, None, None, 42.8, 71.6, 35.6, 72.19, 21.2, 79.84, 25.36, 66.99, 22.8, 64.4, 51.8, 70, 81.81, 77, 80.6, None, 78.33, 55.42, 52, 79, 80.6, None, 37.08, 64.4, 71.17, 51.8, 73.4, 77, 71.6, 81.14, 82.4, 57.99, 25.12, 73, 41, 91.45, 21.2, -9.33],86,0,5.44
5546220,Saint George,US,37.1,-113.58,            [77, 70, 1.72, None, 84.2, 42.8, 48, 82.4, 77, None, 50, 60.8, 51.8, 55, 50, 66.2, 48.99, 73.98, 53.6, 44.6, 55, None, 71.6, 21.76, 38.97, 77, 61.79, 75.2, 20.1, 65.91, 61, 10.4, 77.95, 63, 84.2, 73.22, 51.8, 66.78, 71.46, 73.4, 29.1, 59, 53.01, None, 30.2, 57.58, 77, 66.2, 30.74, 73.99, None, 17.8, 14, None, 19.4, 61.54, 63.75, 71.6, None, 15.28, 66.2, 89.6, 80.6, None, 75.2, 33.8, 39.2, None, 41, 73.4, 77.31, -26.41, 86, 83.41, None, None, 42.8, 71.6, 35.6, 72.19, 21.2, 79.84, 25.36, 66.99, 22.8, 64.4, 51.8, 70, 81.81, 77, 80.6, None, 78.33, 55.42, 52, 79, 80.6, None, 37.08, 64.4, 71.17, 51.8, 73.4, 77, 71.6, 81.14, 82.4, 57.99, 25.12, 73, 41, 91.45, 21.2, -9.33, 48],56,90,5.82
1337610,Thinadhoo,MV,0.53,72.93,            [77, 70, 1.72, None, 84.2, 42.8, 48, 82.4, 77, None, 50, 60.8, 51.8, 55, 50, 66.2, 48.99, 73.98, 53.6, 44.6, 55, None, 71.6, 21.76, 38.97, 77, 61.79, 75.2, 20.1, 65.91, 61, 10.4, 77.95, 63, 84.2, 73.22, 51.8, 66.78, 71.46, 73.4, 29.1, 59, 53.01, None, 30.2, 57.58, 77, 66.2, 30.74, 73.99, None, 17.8, 14, None, 19.4, 61.54, 63.75, 71.6, None, 15.28, 66.2, 89.6, 80.6, None, 75.2, 33.8, 39.2, None, 41, 73.4, 77.31, -26.41, 86, 83.41, None, None, 42.8, 71.6, 35.6, 72.19, 21.2, 79.84, 25.36, 66.99, 22.8, 64.4, 51.8, 70, 81.81, 77, 80.6, None, 78.33, 55.42, 52, 79, 80.6, None, 37.08, 64.4, 71.17, 51.8, 73.4, 77, 71.6, 81.14, 82.4, 57.99, 25.12, 73, 41, 91.45, 21.2, -9.33, 48, 83.71],72,63,9.89
2109528,Buala,SB,-8.14,159.59,            [77, 70, 1.72, None, 84.2, 42.8, 48, 82.4, 77, None, 50, 60.8, 51.8, 55, 50, 66.2, 48.99, 73.98, 53.6, 44.6, 55, None, 71.6, 21.76, 38.97, 77, 61.79, 75.2, 20.1, 65.91, 61, 10.4, 77.95, 63, 84.2, 73.22, 51.8, 66.78, 71.46, 73.4, 29.1, 59, 53.01, None, 30.2, 57.58, 77, 66.2, 30.74, 73.99, None, 17.8, 14, None, 19.4, 61.54, 63.75, 71.6, None, 15.28, 66.2, 89.6, 80.6, None, 75.2, 33.8, 39.2, None, 41, 73.4, 77.31, -26.41, 86, 83.41, None, None, 42.8, 71.6, 35.6, 72.19, 21.2, 79.84, 25.36, 66.99, 22.8, 64.4, 51.8, 70, 81.81, 77, 80.6, None, 78.33, 55.42, 52, 79, 80.6, None, 37.08, 64.4, 71.17, 51.8, 73.4, 77, 71.6, 81.14, 82.4, 57.99, 25.12, 73, 41, 91.45, 21.2, -9.33, 48, 83.71, 81.73],77,8,5.53
2121025,Srednekolymsk,RU,67.45,153.68,            [77, 70, 1.72, None, 84.2, 42.8, 48, 82.4, 77, None, 50, 60.8, 51.8, 55, 50, 66.2, 48.99, 73.98, 53.6, 44.6, 55, None, 71.6, 21.76, 38.97, 77, 61.79, 75.2, 20.1, 65.91, 61, 10.4, 77.95, 63, 84.2, 73.22, 51.8, 66.78, 71.46, 73.4, 29.1, 59, 53.01, None, 30.2, 57.58, 77, 66.2, 30.74, 73.99, None, 17.8, 14, None, 19.4, 61.54, 63.75, 71.6, None, 15.28, 66.2, 89.6, 80.6, None, 75.2, 33.8, 39.2, None, 41, 73.4, 77.31, -26.41, 86, 83.41, None, None, 42.8, 71.6, 35.6, 72.19, 21.2, 79.84, 25.36, 66.99, 22.8, 64.4, 51.8, 70, 81.81, 77, 80.6, None, 78.33, 55.42, 52, 79, 80.6, None, 37.08, 64.4, 71.17, 51.8, 73.4, 77, 71.6, 81.14, 82.4, 57.99, 25.12, 73, 41, 91.45, 21.2, -9.33, 48, 83.71, 81.73, -8.63],91,100,6.51
1217007,Koson,UZ,39.04,65.58,            [77, 70, 1.72, None, 84.2, 42.8, 48, 82.4, 77, None, 50, 60.8, 51.8, 55, 50, 66.2, 48.99, 73.98, 53.6, 44.6, 55, None, 71.6, 21.76, 38.97, 77, 61.79, 75.2, 20.1, 65.91, 61, 10.4, 77.95, 63, 84.2, 73.22, 51.8, 66.78, 71.46, 73.4, 29.1, 59, 53.01, None, 30.2, 57.58, 77, 66.2, 30.74, 73.99, None, 17.8, 14, None, 19.4, 61.54, 63.75, 71.6, None, 15.28, 66.2, 89.6, 80.6, None, 75.2, 33.8, 39.2, None, 41, 73.4, 77.31, -26.41, 86, 83.41, None, None, 42.8, 71.6, 35.6, 72.19, 21.2, 79.84, 25.36, 66.99, 22.8, 64.4, 51.8, 70, 81.81, 77, 80.6, None, 78.33, 55.42, 52, 79, 80.6, None, 37.08, 64.4, 71.17, 51.8, 73.4, 77, 71.6, 81.14, 82.4, 57.99, 25.12, 73, 41, 91.45, 21.2, -9.33, 48, 83.71, 81.73, -8.63, 42.8],70,0,4.7
2016307,Solnechnyy,RU,50.72,136.63,            [77, 70, 1.72, None, 84.2, 42.8, 48, 82.4, 77, None, 50, 60.8, 51.8, 55, 50, 66.2, 48.99, 73.98, 53.6, 44.6, 55, None, 71.6, 21.76, 38.97, 77, 61.79, 75.2, 20.1, 65.91, 61, 10.4, 77.95, 63, 84.2, 73.22, 51.8, 66.78, 71.46, 73.4, 29.1, 59, 53.01, None, 30.2, 57.58, 77, 66.2, 30.74, 73.99, None, 17.8, 14, None, 19.4, 61.54, 63.75, 71.6, None, 15.28, 66.2, 89.6, 80.6, None, 75.2, 33.8, 39.2, None, 41, 73.4, 77.31, -26.41, 86, 83.41, None, None, 42.8, 71.6, 35.6, 72.19, 21.2, 79.84, 25.36, 66.99, 22.8, 64.4, 51.8, 70, 81.81, 77, 80.6, None, 78.33, 55.42, 52, 79, 80.6, None, 37.08, 64.4, 71.17, 51.8, 73.4, 77, 71.6, 81.14, 82.4, 57.99, 25.12, 73, 41, 91.45, 21.2, -9.33, 48, 83.71, 81.73, -8.63, 42.8, None, 9.36],88,49,2.21
217562,Butembo,CD,0.15,29.28,            [77, 70, 1.72, None, 84.2, 42.8, 48, 82.4, 77, None, 50, 60.8, 51.8, 55, 50, 66.2, 48.99, 73.98, 53.6, 44.6, 55, None, 71.6, 21.76, 38.97, 77, 61.79, 75.2, 20.1, 65.91, 61, 10.4, 77.95, 63, 84.2, 73.22, 51.8, 66.78, 71.46, 73.4, 29.1, 59, 53.01, None, 30.2, 57.58, 77, 66.2, 30.74, 73.99, None, 17.8, 14, None, 19.4, 61.54, 63.75, 71.6, None, 15.28, 66.2, 89.6, 80.6, None, 75.2, 33.8, 39.2, None, 41, 73.4, 77.31, -26.41, 86, 83.41, None, None, 42.8, 71.6, 35.6, 72.19, 21.2, 79.84, 25.36, 66.99, 22.8, 64.4, 51.8, 70, 81.81, 77, 80.6, None, 78.33, 55.42, 52, 79, 80.6, None, 37.08, 64.4, 71.17, 51.8, 73.4, 77, 71.6, 81.14, 82.4, 57.99, 25.12, 73, 41, 91.45, 21.2, -9.33, 48, 83.71, 81.73, -8.63, 42.8, None, 9.36, 58.17],88,92,2.28
3883457,Lebu,CL,-37.62,-73.65,            [77, 70, 1.72, None, 84.2, 42.8, 48, 82.4, 77, None, 50, 60.8, 51.8, 55, 50, 66.2, 48.99, 73.98, 53.6, 44.6, 55, None, 71.6, 21.76, 38.97, 77, 61.79, 75.2, 20.1, 65.91, 61, 10.4, 77.95, 63, 84.2, 73.22, 51.8, 66.78, 71.46, 73.4, 29.1, 59, 53.01, None, 30.2, 57.58, 77, 66.2, 30.74, 73.99, None, 17.8, 14, None, 19.4, 61.54, 63.75, 71.6, None, 15.28, 66.2, 89.6, 80.6, None, 75.2, 33.8, 39.2, None, 41, 73.4, 77.31, -26.41, 86, 83.41, None, None, 42.8, 71.6, 35.6, 72.19, 21.2, 79.84, 25.36, 66.99, 22.8, 64.4, 51.8, 70, 81.81, 77, 80.6, None, 78.33, 55.42, 52, 79, 80.6, None, 37.08, 64.4, 71.17, 51.8, 73.4, 77, 71.6, 81.14, 82.4, 57.99, 25.12, 73, 41, 91.45, 21.2, -9.33, 48, 83.71, 81.73, -8.63, 42.8, None, 9.36, 58.17, 56.86],77,0,21
964420,Port Elizabeth,ZA,-33.92,25.57,            [77, 70, 1.72, None, 84.2, 42.8, 48, 82.4, 77, None, 50, 60.8, 51.8, 55, 50, 66.2, 48.99, 73.98, 53.6, 44.6, 55, None, 71.6, 21.76, 38.97, 77, 61.79, 75.2, 20.1, 65.91, 61, 10.4, 77.95, 63, 84.2, 73.22, 51.8, 66.78, 71.46, 73.4, 29.1, 59, 53.01, None, 30.2, 57.58, 77, 66.2, 30.74, 73.99, None, 17.8, 14, None, 19.4, 61.54, 63.75, 71.6, None, 15.28, 66.2, 89.6, 80.6, None, 75.2, 33.8, 39.2, None, 41, 73.4, 77.31, -26.41, 86, 83.41, None, None, 42.8, 71.6, 35.6, 72.19, 21.2, 79.84, 25.36, 66.99, 22.8, 64.4, 51.8, 70, 81.81, 77, 80.6, None, 78.33, 55.42, 52, 79, 80.6, None, 37.08, 64.4, 71.17, 51.8, 73.4, 77, 71.6, 81.14, 82.4, 57.99, 25.12, 73, 41, 91.45, 21.2, -9.33, 48, 83.71, 81.73, -8.63, 42.8, None, 9.36, 58.17, 56.86, 55.4],76,0,6.93
3372760,Praia da Vitória,PT,38.73,-27.07,            [77, 70, 1.72, None, 84.2, 42.8, 48, 82.4, 77, None, 50, 60.8, 51.8, 55, 50, 66.2, 48.99, 73.98, 53.6, 44.6, 55, None, 71.6, 21.76, 38.97, 77, 61.79, 75.2, 20.1, 65.91, 61, 10.4, 77.95, 63, 84.2, 73.22, 51.8, 66.78, 71.46, 73.4, 29.1, 59, 53.01, None, 30.2, 57.58, 77, 66.2, 30.74, 73.99, None, 17.8, 14, None, 19.4, 61.54, 63.75, 71.6, None, 15.28, 66.2, 89.6, 80.6, None, 75.2, 33.8, 39.2, None, 41, 73.4, 77.31, -26.41, 86, 83.41, None, None, 42.8, 71.6, 35.6, 72.19, 21.2, 79.84, 25.36, 66.99, 22.8, 64.4, 51.8, 70, 81.81, 77, 80.6, None, 78.33, 55.42, 52, 79, 80.6, None, 37.08, 64.4, 71.17, 51.8, 73.4, 77, 71.6, 81.14, 82.4, 57.99, 25.12, 73, 41, 91.45, 21.2, -9.33, 48, 83.71, 81.73, -8.63, 42.8, None, 9.36, 58.17, 56.86, 55.4, 66],77,40,23.31
4021858,Guerrero Negro,MX,27.98,-114.06,            [77, 70, 1.72, None, 84.2, 42.8, 48, 82.4, 77, None, 50, 60.8, 51.8, 55, 50, 66.2, 48.99, 73.98, 53.6, 44.6, 55, None, 71.6, 21.76, 38.97, 77, 61.79, 75.2, 20.1, 65.91, 61, 10.4, 77.95, 63, 84.2, 73.22, 51.8, 66.78, 71.46, 73.4, 29.1, 59, 53.01, None, 30.2, 57.58, 77, 66.2, 30.74, 73.99, None, 17.8, 14, None, 19.4, 61.54, 63.75, 71.6, None, 15.28, 66.2, 89.6, 80.6, None, 75.2, 33.8, 39.2, None, 41, 73.4, 77.31, -26.41, 86, 83.41, None, None, 42.8, 71.6, 35.6, 72.19, 21.2, 79.84, 25.36, 66.99, 22.8, 64.4, 51.8, 70, 81.81, 77, 80.6, None, 78.33, 55.42, 52, 79, 80.6, None, 37.08, 64.4, 71.17, 51.8, 73.4, 77, 71.6, 81.14, 82.4, 57.99, 25.12, 73, 41, 91.45, 21.2, -9.33, 48, 83.71, 81.73, -8.63, 42.8, None, 9.36, 58.17, 56.86, 55.4, 66, None, 67.68],53,71,16.51
3423146,Ilulissat,GL,69.22,-51.1,            [77, 70, 1.72, None, 84.2, 42.8, 48, 82.4, 77, None, 50, 60.8, 51.8, 55, 50, 66.2, 48.99, 73.98, 53.6, 44.6, 55, None, 71.6, 21.76, 38.97, 77, 61.79, 75.2, 20.1, 65.91, 61, 10.4, 77.95, 63, 84.2, 73.22, 51.8, 66.78, 71.46, 73.4, 29.1, 59, 53.01, None, 30.2, 57.58, 77, 66.2, 30.74, 73.99, None, 17.8, 14, None, 19.4, 61.54, 63.75, 71.6, None, 15.28, 66.2, 89.6, 80.6, None, 75.2, 33.8, 39.2, None, 41, 73.4, 77.31, -26.41, 86, 83.41, None, None, 42.8, 71.6, 35.6, 72.19, 21.2, 79.84, 25.36, 66.99, 22.8, 64.4, 51.8, 70, 81.81, 77, 80.6, None, 78.33, 55.42, 52, 79, 80.6, None, 37.08, 64.4, 71.17, 51.8, 73.4, 77, 71.6, 81.14, 82.4, 57.99, 25.12, 73, 41, 91.45, 21.2, -9.33, 48, 83.71, 81.73, -8.63, 42.8, None, 9.36, 58.17, 56.86, 55.4, 66, None, 67.68, 15.8],72,75,5.82
244878,Biltine,TD,14.53,20.92,            [77, 70, 1.72, None, 84.2, 42.8, 48, 82.4, 77, None, 50, 60.8, 51.8, 55, 50, 66.2, 48.99, 73.98, 53.6, 44.6, 55, None, 71.6, 21.76, 38.97, 77, 61.79, 75.2, 20.1, 65.91, 61, 10.4, 77.95, 63, 84.2, 73.22, 51.8, 66.78, 71.46, 73.4, 29.1, 59, 53.01, None, 30.2, 57.58, 77, 66.2, 30.74, 73.99, None, 17.8, 14, None, 19.4, 61.54, 63.75, 71.6, None, 15.28, 66.2, 89.6, 80.6, None, 75.2, 33.8, 39.2, None, 41, 73.4, 77.31, -26.41, 86, 83.41, None, None, 42.8, 71.6, 35.6, 72.19, 21.2, 79.84, 25.36, 66.99, 22.8, 64.4, 51.8, 70, 81.81, 77, 80.6, None, 78.33, 55.42, 52, 79, 80.6, None, 37.08, 64.4, 71.17, 51.8, 73.4, 77, 71.6, 81.14, 82.4, 57.99, 25.12, 73, 41, 91.45, 21.2, -9.33, 48, 83.71, 81.73, -8.63, 42.8, None, 9.36, 58.17, 56.86, 55.4, 66, None, 67.68, 15.8, None, 79.86],25,1,9.46
3139597,Sistranda,NO,63.73,8.83,            [77, 70, 1.72, None, 84.2, 42.8, 48, 82.4, 77, None, 50, 60.8, 51.8, 55, 50, 66.2, 48.99, 73.98, 53.6, 44.6, 55, None, 71.6, 21.76, 38.97, 77, 61.79, 75.2, 20.1, 65.91, 61, 10.4, 77.95, 63, 84.2, 73.22, 51.8, 66.78, 71.46, 73.4, 29.1, 59, 53.01, None, 30.2, 57.58, 77, 66.2, 30.74, 73.99, None, 17.8, 14, None, 19.4, 61.54, 63.75, 71.6, None, 15.28, 66.2, 89.6, 80.6, None, 75.2, 33.8, 39.2, None, 41, 73.4, 77.31, -26.41, 86, 83.41, None, None, 42.8, 71.6, 35.6, 72.19, 21.2, 79.84, 25.36, 66.99, 22.8, 64.4, 51.8, 70, 81.81, 77, 80.6, None, 78.33, 55.42, 52, 79, 80.6, None, 37.08, 64.4, 71.17, 51.8, 73.4, 77, 71.6, 81.14, 82.4, 57.99, 25.12, 73, 41, 91.45, 21.2, -9.33, 48, 83.71, 81.73, -8.63, 42.8, None, 9.36, 58.17, 56.86, 55.4, 66, None, 67.68, 15.8, None, 79.86, 44.6],87,75,13.87
2017155,Saskylakh,RU,71.92,114.08,            [77, 70, 1.72, None, 84.2, 42.8, 48, 82.4, 77, None, 50, 60.8, 51.8, 55, 50, 66.2, 48.99, 73.98, 53.6, 44.6, 55, None, 71.6, 21.76, 38.97, 77, 61.79, 75.2, 20.1, 65.91, 61, 10.4, 77.95, 63, 84.2, 73.22, 51.8, 66.78, 71.46, 73.4, 29.1, 59, 53.01, None, 30.2, 57.58, 77, 66.2, 30.74, 73.99, None, 17.8, 14, None, 19.4, 61.54, 63.75, 71.6, None, 15.28, 66.2, 89.6, 80.6, None, 75.2, 33.8, 39.2, None, 41, 73.4, 77.31, -26.41, 86, 83.41, None, None, 42.8, 71.6, 35.6, 72.19, 21.2, 79.84, 25.36, 66.99, 22.8, 64.4, 51.8, 70, 81.81, 77, 80.6, None, 78.33, 55.42, 52, 79, 80.6, None, 37.08, 64.4, 71.17, 51.8, 73.4, 77, 71.6, 81.14, 82.4, 57.99, 25.12, 73, 41, 91.45, 21.2, -9.33, 48, 83.71, 81.73, -8.63, 42.8, None, 9.36, 58.17, 56.86, 55.4, 66, None, 67.68, 15.8, None, 79.86, 44.6, 8.8],94,100,28.19
6096551,Pangnirtung,CA,66.15,-65.71,            [77, 70, 1.72, None, 84.2, 42.8, 48, 82.4, 77, None, 50, 60.8, 51.8, 55, 50, 66.2, 48.99, 73.98, 53.6, 44.6, 55, None, 71.6, 21.76, 38.97, 77, 61.79, 75.2, 20.1, 65.91, 61, 10.4, 77.95, 63, 84.2, 73.22, 51.8, 66.78, 71.46, 73.4, 29.1, 59, 53.01, None, 30.2, 57.58, 77, 66.2, 30.74, 73.99, None, 17.8, 14, None, 19.4, 61.54, 63.75, 71.6, None, 15.28, 66.2, 89.6, 80.6, None, 75.2, 33.8, 39.2, None, 41, 73.4, 77.31, -26.41, 86, 83.41, None, None, 42.8, 71.6, 35.6, 72.19, 21.2, 79.84, 25.36, 66.99, 22.8, 64.4, 51.8, 70, 81.81, 77, 80.6, None, 78.33, 55.42, 52, 79, 80.6, None, 37.08, 64.4, 71.17, 51.8, 73.4, 77, 71.6, 81.14, 82.4, 57.99, 25.12, 73, 41, 91.45, 21.2, -9.33, 48, 83.71, 81.73, -8.63, 42.8, None, 9.36, 58.17, 56.86, 55.4, 66, None, 67.68, 15.8, None, 79.86, 44.6, 8.8, 15.8],72,75,3.36
4017987,Atoyac,MX,20.02,-103.53,            [77, 70, 1.72, None, 84.2, 42.8, 48, 82.4, 77, None, 50, 60.8, 51.8, 55, 50, 66.2, 48.99, 73.98, 53.6, 44.6, 55, None, 71.6, 21.76, 38.97, 77, 61.79, 75.2, 20.1, 65.91, 61, 10.4, 77.95, 63, 84.2, 73.22, 51.8, 66.78, 71.46, 73.4, 29.1, 59, 53.01, None, 30.2, 57.58, 77, 66.2, 30.74, 73.99, None, 17.8, 14, None, 19.4, 61.54, 63.75, 71.6, None, 15.28, 66.2, 89.6, 80.6, None, 75.2, 33.8, 39.2, None, 41, 73.4, 77.31, -26.41, 86, 83.41, None, None, 42.8, 71.6, 35.6, 72.19, 21.2, 79.84, 25.36, 66.99, 22.8, 64.4, 51.8, 70, 81.81, 77, 80.6, None, 78.33, 55.42, 52, 79, 80.6, None, 37.08, 64.4, 71.17, 51.8, 73.4, 77, 71.6, 81.14, 82.4, 57.99, 25.12, 73, 41, 91.45, 21.2, -9.33, 48, 83.71, 81.73, -8.63, 42.8, None, 9.36, 58.17, 56.86, 55.4, 66, None, 67.68, 15.8, None, 79.86, 44.6, 8.8, 15.8, 82.4],28,40,3.36
3979216,Camalú,MX,30.85,-116.07,            [77, 70, 1.72, None, 84.2, 42.8, 48, 82.4, 77, None, 50, 60.8, 51.8, 55, 50, 66.2, 48.99, 73.98, 53.6, 44.6, 55, None, 71.6, 21.76, 38.97, 77, 61.79, 75.2, 20.1, 65.91, 61, 10.4, 77.95, 63, 84.2, 73.22, 51.8, 66.78, 71.46, 73.4, 29.1, 59, 53.01, None, 30.2, 57.58, 77, 66.2, 30.74, 73.99, None, 17.8, 14, None, 19.4, 61.54, 63.75, 71.6, None, 15.28, 66.2, 89.6, 80.6, None, 75.2, 33.8, 39.2, None, 41, 73.4, 77.31, -26.41, 86, 83.41, None, None, 42.8, 71.6, 35.6, 72.19, 21.2, 79.84, 25.36, 66.99, 22.8, 64.4, 51.8, 70, 81.81, 77, 80.6, None, 78.33, 55.42, 52, 79, 80.6, None, 37.08, 64.4, 71.17, 51.8, 73.4, 77, 71.6, 81.14, 82.4, 57.99, 25.12, 73, 41, 91.45, 21.2, -9.33, 48, 83.71, 81.73, -8.63, 42.8, None, 9.36, 58.17, 56.86, 55.4, 66, None, 67.68, 15.8, None, 79.86, 44.6, 8.8, 15.8, 82.4, 60.01],38,90,1.99
3932145,Pisco,PE,-13.7,-76.22,            [77, 70, 1.72, None, 84.2, 42.8, 48, 82.4, 77, None, 50, 60.8, 51.8, 55, 50, 66.2, 48.99, 73.98, 53.6, 44.6, 55, None, 71.6, 21.76, 38.97, 77, 61.79, 75.2, 20.1, 65.91, 61, 10.4, 77.95, 63, 84.2, 73.22, 51.8, 66.78, 71.46, 73.4, 29.1, 59, 53.01, None, 30.2, 57.58, 77, 66.2, 30.74, 73.99, None, 17.8, 14, None, 19.4, 61.54, 63.75, 71.6, None, 15.28, 66.2, 89.6, 80.6, None, 75.2, 33.8, 39.2, None, 41, 73.4, 77.31, -26.41, 86, 83.41, None, None, 42.8, 71.6, 35.6, 72.19, 21.2, 79.84, 25.36, 66.99, 22.8, 64.4, 51.8, 70, 81.81, 77, 80.6, None, 78.33, 55.42, 52, 79, 80.6, None, 37.08, 64.4, 71.17, 51.8, 73.4, 77, 71.6, 81.14, 82.4, 57.99, 25.12, 73, 41, 91.45, 21.2, -9.33, 48, 83.71, 81.73, -8.63, 42.8, None, 9.36, 58.17, 56.86, 55.4, 66, None, 67.68, 15.8, None, 79.86, 44.6, 8.8, 15.8, 82.4, 60.01, None, 66.99],77,20,11.41
3894426,Coyhaique,CL,-45.58,-72.07,            [77, 70, 1.72, None, 84.2, 42.8, 48, 82.4, 77, None, 50, 60.8, 51.8, 55, 50, 66.2, 48.99, 73.98, 53.6, 44.6, 55, None, 71.6, 21.76, 38.97, 77, 61.79, 75.2, 20.1, 65.91, 61, 10.4, 77.95, 63, 84.2, 73.22, 51.8, 66.78, 71.46, 73.4, 29.1, 59, 53.01, None, 30.2, 57.58, 77, 66.2, 30.74, 73.99, None, 17.8, 14, None, 19.4, 61.54, 63.75, 71.6, None, 15.28, 66.2, 89.6, 80.6, None, 75.2, 33.8, 39.2, None, 41, 73.4, 77.31, -26.41, 86, 83.41, None, None, 42.8, 71.6, 35.6, 72.19, 21.2, 79.84, 25.36, 66.99, 22.8, 64.4, 51.8, 70, 81.81, 77, 80.6, None, 78.33, 55.42, 52, 79, 80.6, None, 37.08, 64.4, 71.17, 51.8, 73.4, 77, 71.6, 81.14, 82.4, 57.99, 25.12, 73, 41, 91.45, 21.2, -9.33, 48, 83.71, 81.73, -8.63, 42.8, None, 9.36, 58.17, 56.86, 55.4, 66, None, 67.68, 15.8, None, 79.86, 44.6, 8.8, 15.8, 82.4, 60.01, None, 66.99, 71.6],37,0,8.05
3573374,The Valley,AI,18.22,-63.06,            [77, 70, 1.72, None, 84.2, 42.8, 48, 82.4, 77, None, 50, 60.8, 51.8, 55, 50, 66.2, 48.99, 73.98, 53.6, 44.6, 55, None, 71.6, 21.76, 38.97, 77, 61.79, 75.2, 20.1, 65.91, 61, 10.4, 77.95, 63, 84.2, 73.22, 51.8, 66.78, 71.46, 73.4, 29.1, 59, 53.01, None, 30.2, 57.58, 77, 66.2, 30.74, 73.99, None, 17.8, 14, None, 19.4, 61.54, 63.75, 71.6, None, 15.28, 66.2, 89.6, 80.6, None, 75.2, 33.8, 39.2, None, 41, 73.4, 77.31, -26.41, 86, 83.41, None, None, 42.8, 71.6, 35.6, 72.19, 21.2, 79.84, 25.36, 66.99, 22.8, 64.4, 51.8, 70, 81.81, 77, 80.6, None, 78.33, 55.42, 52, 79, 80.6, None, 37.08, 64.4, 71.17, 51.8, 73.4, 77, 71.6, 81.14, 82.4, 57.99, 25.12, 73, 41, 91.45, 21.2, -9.33, 48, 83.71, 81.73, -8.63, 42.8, None, 9.36, 58.17, 56.86, 55.4, 66, None, 67.68, 15.8, None, 79.86, 44.6, 8.8, 15.8, 82.4, 60.01, None, 66.99, 71.6, 82.4],78,40,17.22
6170031,Tuktoyaktuk,CA,69.45,-133.04,            [77, 70, 1.72, None, 84.2, 42.8, 48, 82.4, 77, None, 50, 60.8, 51.8, 55, 50, 66.2, 48.99, 73.98, 53.6, 44.6, 55, None, 71.6, 21.76, 38.97, 77, 61.79, 75.2, 20.1, 65.91, 61, 10.4, 77.95, 63, 84.2, 73.22, 51.8, 66.78, 71.46, 73.4, 29.1, 59, 53.01, None, 30.2, 57.58, 77, 66.2, 30.74, 73.99, None, 17.8, 14, None, 19.4, 61.54, 63.75, 71.6, None, 15.28, 66.2, 89.6, 80.6, None, 75.2, 33.8, 39.2, None, 41, 73.4, 77.31, -26.41, 86, 83.41, None, None, 42.8, 71.6, 35.6, 72.19, 21.2, 79.84, 25.36, 66.99, 22.8, 64.4, 51.8, 70, 81.81, 77, 80.6, None, 78.33, 55.42, 52, 79, 80.6, None, 37.08, 64.4, 71.17, 51.8, 73.4, 77, 71.6, 81.14, 82.4, 57.99, 25.12, 73, 41, 91.45, 21.2, -9.33, 48, 83.71, 81.73, -8.63, 42.8, None, 9.36, 58.17, 56.86, 55.4, 66, None, 67.68, 15.8, None, 79.86, 44.6, 8.8, 15.8, 82.4, 60.01, None, 66.99, 71.6, 82.4, -4],83,90,13.87
3430863,Mar del Plata,AR,-38,-57.56,            [77, 70, 1.72, None, 84.2, 42.8, 48, 82.4, 77, None, 50, 60.8, 51.8, 55, 50, 66.2, 48.99, 73.98, 53.6, 44.6, 55, None, 71.6, 21.76, 38.97, 77, 61.79, 75.2, 20.1, 65.91, 61, 10.4, 77.95, 63, 84.2, 73.22, 51.8, 66.78, 71.46, 73.4, 29.1, 59, 53.01, None, 30.2, 57.58, 77, 66.2, 30.74, 73.99, None, 17.8, 14, None, 19.4, 61.54, 63.75, 71.6, None, 15.28, 66.2, 89.6, 80.6, None, 75.2, 33.8, 39.2, None, 41, 73.4, 77.31, -26.41, 86, 83.41, None, None, 42.8, 71.6, 35.6, 72.19, 21.2, 79.84, 25.36, 66.99, 22.8, 64.4, 51.8, 70, 81.81, 77, 80.6, None, 78.33, 55.42, 52, 79, 80.6, None, 37.08, 64.4, 71.17, 51.8, 73.4, 77, 71.6, 81.14, 82.4, 57.99, 25.12, 73, 41, 91.45, 21.2, -9.33, 48, 83.71, 81.73, -8.63, 42.8, None, 9.36, 58.17, 56.86, 55.4, 66, None, 67.68, 15.8, None, 79.86, 44.6, 8.8, 15.8, 82.4, 60.01, None, 66.99, 71.6, 82.4, -4, 73.4],53,75,10.29
5563839,Fortuna,US,40.6,-124.16,            [77, 70, 1.72, None, 84.2, 42.8, 48, 82.4, 77, None, 50, 60.8, 51.8, 55, 50, 66.2, 48.99, 73.98, 53.6, 44.6, 55, None, 71.6, 21.76, 38.97, 77, 61.79, 75.2, 20.1, 65.91, 61, 10.4, 77.95, 63, 84.2, 73.22, 51.8, 66.78, 71.46, 73.4, 29.1, 59, 53.01, None, 30.2, 57.58, 77, 66.2, 30.74, 73.99, None, 17.8, 14, None, 19.4, 61.54, 63.75, 71.6, None, 15.28, 66.2, 89.6, 80.6, None, 75.2, 33.8, 39.2, None, 41, 73.4, 77.31, -26.41, 86, 83.41, None, None, 42.8, 71.6, 35.6, 72.19, 21.2, 79.84, 25.36, 66.99, 22.8, 64.4, 51.8, 70, 81.81, 77, 80.6, None, 78.33, 55.42, 52, 79, 80.6, None, 37.08, 64.4, 71.17, 51.8, 73.4, 77, 71.6, 81.14, 82.4, 57.99, 25.12, 73, 41, 91.45, 21.2, -9.33, 48, 83.71, 81.73, -8.63, 42.8, None, 9.36, 58.17, 56.86, 55.4, 66, None, 67.68, 15.8, None, 79.86, 44.6, 8.8, 15.8, 82.4, 60.01, None, 66.99, 71.6, 82.4, -4, 73.4, 53.01],43,1,9.17
934479,Grand Gaube,MU,-20.01,57.66,            [77, 70, 1.72, None, 84.2, 42.8, 48, 82.4, 77, None, 50, 60.8, 51.8, 55, 50, 66.2, 48.99, 73.98, 53.6, 44.6, 55, None, 71.6, 21.76, 38.97, 77, 61.79, 75.2, 20.1, 65.91, 61, 10.4, 77.95, 63, 84.2, 73.22, 51.8, 66.78, 71.46, 73.4, 29.1, 59, 53.01, None, 30.2, 57.58, 77, 66.2, 30.74, 73.99, None, 17.8, 14, None, 19.4, 61.54, 63.75, 71.6, None, 15.28, 66.2, 89.6, 80.6, None, 75.2, 33.8, 39.2, None, 41, 73.4, 77.31, -26.41, 86, 83.41, None, None, 42.8, 71.6, 35.6, 72.19, 21.2, 79.84, 25.36, 66.99, 22.8, 64.4, 51.8, 70, 81.81, 77, 80.6, None, 78.33, 55.42, 52, 79, 80.6, None, 37.08, 64.4, 71.17, 51.8, 73.4, 77, 71.6, 81.14, 82.4, 57.99, 25.12, 73, 41, 91.45, 21.2, -9.33, 48, 83.71, 81.73, -8.63, 42.8, None, 9.36, 58.17, 56.86, 55.4, 66, None, 67.68, 15.8, None, 79.86, 44.6, 8.8, 15.8, 82.4, 60.01, None, 66.99, 71.6, 82.4, -4, 73.4, 53.01, 73],73,27,5.01
1214488,Meulaboh,ID,4.14,96.13,            [77, 70, 1.72, None, 84.2, 42.8, 48, 82.4, 77, None, 50, 60.8, 51.8, 55, 50, 66.2, 48.99, 73.98, 53.6, 44.6, 55, None, 71.6, 21.76, 38.97, 77, 61.79, 75.2, 20.1, 65.91, 61, 10.4, 77.95, 63, 84.2, 73.22, 51.8, 66.78, 71.46, 73.4, 29.1, 59, 53.01, None, 30.2, 57.58, 77, 66.2, 30.74, 73.99, None, 17.8, 14, None, 19.4, 61.54, 63.75, 71.6, None, 15.28, 66.2, 89.6, 80.6, None, 75.2, 33.8, 39.2, None, 41, 73.4, 77.31, -26.41, 86, 83.41, None, None, 42.8, 71.6, 35.6, 72.19, 21.2, 79.84, 25.36, 66.99, 22.8, 64.4, 51.8, 70, 81.81, 77, 80.6, None, 78.33, 55.42, 52, 79, 80.6, None, 37.08, 64.4, 71.17, 51.8, 73.4, 77, 71.6, 81.14, 82.4, 57.99, 25.12, 73, 41, 91.45, 21.2, -9.33, 48, 83.71, 81.73, -8.63, 42.8, None, 9.36, 58.17, 56.86, 55.4, 66, None, 67.68, 15.8, None, 79.86, 44.6, 8.8, 15.8, 82.4, 60.01, None, 66.99, 71.6, 82.4, -4, 73.4, 53.01, 73, 76.77],88,93,3
3465769,Conceição da Barra,BR,-18.59,-39.73,            [77, 70, 1.72, None, 84.2, 42.8, 48, 82.4, 77, None, 50, 60.8, 51.8, 55, 50, 66.2, 48.99, 73.98, 53.6, 44.6, 55, None, 71.6, 21.76, 38.97, 77, 61.79, 75.2, 20.1, 65.91, 61, 10.4, 77.95, 63, 84.2, 73.22, 51.8, 66.78, 71.46, 73.4, 29.1, 59, 53.01, None, 30.2, 57.58, 77, 66.2, 30.74, 73.99, None, 17.8, 14, None, 19.4, 61.54, 63.75, 71.6, None, 15.28, 66.2, 89.6, 80.6, None, 75.2, 33.8, 39.2, None, 41, 73.4, 77.31, -26.41, 86, 83.41, None, None, 42.8, 71.6, 35.6, 72.19, 21.2, 79.84, 25.36, 66.99, 22.8, 64.4, 51.8, 70, 81.81, 77, 80.6, None, 78.33, 55.42, 52, 79, 80.6, None, 37.08, 64.4, 71.17, 51.8, 73.4, 77, 71.6, 81.14, 82.4, 57.99, 25.12, 73, 41, 91.45, 21.2, -9.33, 48, 83.71, 81.73, -8.63, 42.8, None, 9.36, 58.17, 56.86, 55.4, 66, None, 67.68, 15.8, None, 79.86, 44.6, 8.8, 15.8, 82.4, 60.01, None, 66.99, 71.6, 82.4, -4, 73.4, 53.01, 73, 76.77, None, 78.49],72,1,10.16
5859699,College,US,64.86,-147.8,            [77, 70, 1.72, None, 84.2, 42.8, 48, 82.4, 77, None, 50, 60.8, 51.8, 55, 50, 66.2, 48.99, 73.98, 53.6, 44.6, 55, None, 71.6, 21.76, 38.97, 77, 61.79, 75.2, 20.1, 65.91, 61, 10.4, 77.95, 63, 84.2, 73.22, 51.8, 66.78, 71.46, 73.4, 29.1, 59, 53.01, None, 30.2, 57.58, 77, 66.2, 30.74, 73.99, None, 17.8, 14, None, 19.4, 61.54, 63.75, 71.6, None, 15.28, 66.2, 89.6, 80.6, None, 75.2, 33.8, 39.2, None, 41, 73.4, 77.31, -26.41, 86, 83.41, None, None, 42.8, 71.6, 35.6, 72.19, 21.2, 79.84, 25.36, 66.99, 22.8, 64.4, 51.8, 70, 81.81, 77, 80.6, None, 78.33, 55.42, 52, 79, 80.6, None, 37.08, 64.4, 71.17, 51.8, 73.4, 77, 71.6, 81.14, 82.4, 57.99, 25.12, 73, 41, 91.45, 21.2, -9.33, 48, 83.71, 81.73, -8.63, 42.8, None, 9.36, 58.17, 56.86, 55.4, 66, None, 67.68, 15.8, None, 79.86, 44.6, 8.8, 15.8, 82.4, 60.01, None, 66.99, 71.6, 82.4, -4, 73.4, 53.01, 73, 76.77, None, 78.49, None, 24.8],79,75,16.11
780643,Bjørnevatn,NO,69.67,29.98,            [77, 70, 1.72, None, 84.2, 42.8, 48, 82.4, 77, None, 50, 60.8, 51.8, 55, 50, 66.2, 48.99, 73.98, 53.6, 44.6, 55, None, 71.6, 21.76, 38.97, 77, 61.79, 75.2, 20.1, 65.91, 61, 10.4, 77.95, 63, 84.2, 73.22, 51.8, 66.78, 71.46, 73.4, 29.1, 59, 53.01, None, 30.2, 57.58, 77, 66.2, 30.74, 73.99, None, 17.8, 14, None, 19.4, 61.54, 63.75, 71.6, None, 15.28, 66.2, 89.6, 80.6, None, 75.2, 33.8, 39.2, None, 41, 73.4, 77.31, -26.41, 86, 83.41, None, None, 42.8, 71.6, 35.6, 72.19, 21.2, 79.84, 25.36, 66.99, 22.8, 64.4, 51.8, 70, 81.81, 77, 80.6, None, 78.33, 55.42, 52, 79, 80.6, None, 37.08, 64.4, 71.17, 51.8, 73.4, 77, 71.6, 81.14, 82.4, 57.99, 25.12, 73, 41, 91.45, 21.2, -9.33, 48, 83.71, 81.73, -8.63, 42.8, None, 9.36, 58.17, 56.86, 55.4, 66, None, 67.68, 15.8, None, 79.86, 44.6, 8.8, 15.8, 82.4, 60.01, None, 66.99, 71.6, 82.4, -4, 73.4, 53.01, 73, 76.77, None, 78.49, None, 24.8, 41, None, 32],93,75,31.09
3424607,Tasiilaq,GL,65.61,-37.64,            [77, 70, 1.72, None, 84.2, 42.8, 48, 82.4, 77, None, 50, 60.8, 51.8, 55, 50, 66.2, 48.99, 73.98, 53.6, 44.6, 55, None, 71.6, 21.76, 38.97, 77, 61.79, 75.2, 20.1, 65.91, 61, 10.4, 77.95, 63, 84.2, 73.22, 51.8, 66.78, 71.46, 73.4, 29.1, 59, 53.01, None, 30.2, 57.58, 77, 66.2, 30.74, 73.99, None, 17.8, 14, None, 19.4, 61.54, 63.75, 71.6, None, 15.28, 66.2, 89.6, 80.6, None, 75.2, 33.8, 39.2, None, 41, 73.4, 77.31, -26.41, 86, 83.41, None, None, 42.8, 71.6, 35.6, 72.19, 21.2, 79.84, 25.36, 66.99, 22.8, 64.4, 51.8, 70, 81.81, 77, 80.6, None, 78.33, 55.42, 52, 79, 80.6, None, 37.08, 64.4, 71.17, 51.8, 73.4, 77, 71.6, 81.14, 82.4, 57.99, 25.12, 73, 41, 91.45, 21.2, -9.33, 48, 83.71, 81.73, -8.63, 42.8, None, 9.36, 58.17, 56.86, 55.4, 66, None, 67.68, 15.8, None, 79.86, 44.6, 8.8, 15.8, 82.4, 60.01, None, 66.99, 71.6, 82.4, -4, 73.4, 53.01, 73, 76.77, None, 78.49, None, 24.8, 41, None, 32, 31.37],97,100,37.4
3466165,Cidreira,BR,-30.18,-50.21,            [77, 70, 1.72, None, 84.2, 42.8, 48, 82.4, 77, None, 50, 60.8, 51.8, 55, 50, 66.2, 48.99, 73.98, 53.6, 44.6, 55, None, 71.6, 21.76, 38.97, 77, 61.79, 75.2, 20.1, 65.91, 61, 10.4, 77.95, 63, 84.2, 73.22, 51.8, 66.78, 71.46, 73.4, 29.1, 59, 53.01, None, 30.2, 57.58, 77, 66.2, 30.74, 73.99, None, 17.8, 14, None, 19.4, 61.54, 63.75, 71.6, None, 15.28, 66.2, 89.6, 80.6, None, 75.2, 33.8, 39.2, None, 41, 73.4, 77.31, -26.41, 86, 83.41, None, None, 42.8, 71.6, 35.6, 72.19, 21.2, 79.84, 25.36, 66.99, 22.8, 64.4, 51.8, 70, 81.81, 77, 80.6, None, 78.33, 55.42, 52, 79, 80.6, None, 37.08, 64.4, 71.17, 51.8, 73.4, 77, 71.6, 81.14, 82.4, 57.99, 25.12, 73, 41, 91.45, 21.2, -9.33, 48, 83.71, 81.73, -8.63, 42.8, None, 9.36, 58.17, 56.86, 55.4, 66, None, 67.68, 15.8, None, 79.86, 44.6, 8.8, 15.8, 82.4, 60.01, None, 66.99, 71.6, 82.4, -4, 73.4, 53.01, 73, 76.77, None, 78.49, None, 24.8, 41, None, 32, 31.37, 66.83],91,100,17.52
2112576,Ishinomaki,JP,38.42,141.3,            [77, 70, 1.72, None, 84.2, 42.8, 48, 82.4, 77, None, 50, 60.8, 51.8, 55, 50, 66.2, 48.99, 73.98, 53.6, 44.6, 55, None, 71.6, 21.76, 38.97, 77, 61.79, 75.2, 20.1, 65.91, 61, 10.4, 77.95, 63, 84.2, 73.22, 51.8, 66.78, 71.46, 73.4, 29.1, 59, 53.01, None, 30.2, 57.58, 77, 66.2, 30.74, 73.99, None, 17.8, 14, None, 19.4, 61.54, 63.75, 71.6, None, 15.28, 66.2, 89.6, 80.6, None, 75.2, 33.8, 39.2, None, 41, 73.4, 77.31, -26.41, 86, 83.41, None, None, 42.8, 71.6, 35.6, 72.19, 21.2, 79.84, 25.36, 66.99, 22.8, 64.4, 51.8, 70, 81.81, 77, 80.6, None, 78.33, 55.42, 52, 79, 80.6, None, 37.08, 64.4, 71.17, 51.8, 73.4, 77, 71.6, 81.14, 82.4, 57.99, 25.12, 73, 41, 91.45, 21.2, -9.33, 48, 83.71, 81.73, -8.63, 42.8, None, 9.36, 58.17, 56.86, 55.4, 66, None, 67.68, 15.8, None, 79.86, 44.6, 8.8, 15.8, 82.4, 60.01, None, 66.99, 71.6, 82.4, -4, 73.4, 53.01, 73, 76.77, None, 78.49, None, 24.8, 41, None, 32, 31.37, 66.83, 40.24],83,32,18.54
1283285,Jumla,NP,29.27,82.18,            [77, 70, 1.72, None, 84.2, 42.8, 48, 82.4, 77, None, 50, 60.8, 51.8, 55, 50, 66.2, 48.99, 73.98, 53.6, 44.6, 55, None, 71.6, 21.76, 38.97, 77, 61.79, 75.2, 20.1, 65.91, 61, 10.4, 77.95, 63, 84.2, 73.22, 51.8, 66.78, 71.46, 73.4, 29.1, 59, 53.01, None, 30.2, 57.58, 77, 66.2, 30.74, 73.99, None, 17.8, 14, None, 19.4, 61.54, 63.75, 71.6, None, 15.28, 66.2, 89.6, 80.6, None, 75.2, 33.8, 39.2, None, 41, 73.4, 77.31, -26.41, 86, 83.41, None, None, 42.8, 71.6, 35.6, 72.19, 21.2, 79.84, 25.36, 66.99, 22.8, 64.4, 51.8, 70, 81.81, 77, 80.6, None, 78.33, 55.42, 52, 79, 80.6, None, 37.08, 64.4, 71.17, 51.8, 73.4, 77, 71.6, 81.14, 82.4, 57.99, 25.12, 73, 41, 91.45, 21.2, -9.33, 48, 83.71, 81.73, -8.63, 42.8, None, 9.36, 58.17, 56.86, 55.4, 66, None, 67.68, 15.8, None, 79.86, 44.6, 8.8, 15.8, 82.4, 60.01, None, 66.99, 71.6, 82.4, -4, 73.4, 53.01, 73, 76.77, None, 78.49, None, 24.8, 41, None, 32, 31.37, 66.83, 40.24, 44.06],61,0,4.12
2303611,Esim,GH,4.87,-2.24,            [77, 70, 1.72, None, 84.2, 42.8, 48, 82.4, 77, None, 50, 60.8, 51.8, 55, 50, 66.2, 48.99, 73.98, 53.6, 44.6, 55, None, 71.6, 21.76, 38.97, 77, 61.79, 75.2, 20.1, 65.91, 61, 10.4, 77.95, 63, 84.2, 73.22, 51.8, 66.78, 71.46, 73.4, 29.1, 59, 53.01, None, 30.2, 57.58, 77, 66.2, 30.74, 73.99, None, 17.8, 14, None, 19.4, 61.54, 63.75, 71.6, None, 15.28, 66.2, 89.6, 80.6, None, 75.2, 33.8, 39.2, None, 41, 73.4, 77.31, -26.41, 86, 83.41, None, None, 42.8, 71.6, 35.6, 72.19, 21.2, 79.84, 25.36, 66.99, 22.8, 64.4, 51.8, 70, 81.81, 77, 80.6, None, 78.33, 55.42, 52, 79, 80.6, None, 37.08, 64.4, 71.17, 51.8, 73.4, 77, 71.6, 81.14, 82.4, 57.99, 25.12, 73, 41, 91.45, 21.2, -9.33, 48, 83.71, 81.73, -8.63, 42.8, None, 9.36, 58.17, 56.86, 55.4, 66, None, 67.68, 15.8, None, 79.86, 44.6, 8.8, 15.8, 82.4, 60.01, None, 66.99, 71.6, 82.4, -4, 73.4, 53.01, 73, 76.77, None, 78.49, None, 24.8, 41, None, 32, 31.37, 66.83, 40.24, 44.06, 78.76],86,69,7.34
3356832,Henties Bay,NA,-22.12,14.28,            [77, 70, 1.72, None, 84.2, 42.8, 48, 82.4, 77, None, 50, 60.8, 51.8, 55, 50, 66.2, 48.99, 73.98, 53.6, 44.6, 55, None, 71.6, 21.76, 38.97, 77, 61.79, 75.2, 20.1, 65.91, 61, 10.4, 77.95, 63, 84.2, 73.22, 51.8, 66.78, 71.46, 73.4, 29.1, 59, 53.01, None, 30.2, 57.58, 77, 66.2, 30.74, 73.99, None, 17.8, 14, None, 19.4, 61.54, 63.75, 71.6, None, 15.28, 66.2, 89.6, 80.6, None, 75.2, 33.8, 39.2, None, 41, 73.4, 77.31, -26.41, 86, 83.41, None, None, 42.8, 71.6, 35.6, 72.19, 21.2, 79.84, 25.36, 66.99, 22.8, 64.4, 51.8, 70, 81.81, 77, 80.6, None, 78.33, 55.42, 52, 79, 80.6, None, 37.08, 64.4, 71.17, 51.8, 73.4, 77, 71.6, 81.14, 82.4, 57.99, 25.12, 73, 41, 91.45, 21.2, -9.33, 48, 83.71, 81.73, -8.63, 42.8, None, 9.36, 58.17, 56.86, 55.4, 66, None, 67.68, 15.8, None, 79.86, 44.6, 8.8, 15.8, 82.4, 60.01, None, 66.99, 71.6, 82.4, -4, 73.4, 53.01, 73, 76.77, None, 78.49, None, 24.8, 41, None, 32, 31.37, 66.83, 40.24, 44.06, 78.76, 57.99],80,0,5.99
472887,Vokhma,RU,58.93,46.76,            [77, 70, 1.72, None, 84.2, 42.8, 48, 82.4, 77, None, 50, 60.8, 51.8, 55, 50, 66.2, 48.99, 73.98, 53.6, 44.6, 55, None, 71.6, 21.76, 38.97, 77, 61.79, 75.2, 20.1, 65.91, 61, 10.4, 77.95, 63, 84.2, 73.22, 51.8, 66.78, 71.46, 73.4, 29.1, 59, 53.01, None, 30.2, 57.58, 77, 66.2, 30.74, 73.99, None, 17.8, 14, None, 19.4, 61.54, 63.75, 71.6, None, 15.28, 66.2, 89.6, 80.6, None, 75.2, 33.8, 39.2, None, 41, 73.4, 77.31, -26.41, 86, 83.41, None, None, 42.8, 71.6, 35.6, 72.19, 21.2, 79.84, 25.36, 66.99, 22.8, 64.4, 51.8, 70, 81.81, 77, 80.6, None, 78.33, 55.42, 52, 79, 80.6, None, 37.08, 64.4, 71.17, 51.8, 73.4, 77, 71.6, 81.14, 82.4, 57.99, 25.12, 73, 41, 91.45, 21.2, -9.33, 48, 83.71, 81.73, -8.63, 42.8, None, 9.36, 58.17, 56.86, 55.4, 66, None, 67.68, 15.8, None, 79.86, 44.6, 8.8, 15.8, 82.4, 60.01, None, 66.99, 71.6, 82.4, -4, 73.4, 53.01, 73, 76.77, None, 78.49, None, 24.8, 41, None, 32, 31.37, 66.83, 40.24, 44.06, 78.76, 57.99, 29.73],97,100,9.08
1785036,Zhangye,CN,38.93,100.45,            [77, 70, 1.72, None, 84.2, 42.8, 48, 82.4, 77, None, 50, 60.8, 51.8, 55, 50, 66.2, 48.99, 73.98, 53.6, 44.6, 55, None, 71.6, 21.76, 38.97, 77, 61.79, 75.2, 20.1, 65.91, 61, 10.4, 77.95, 63, 84.2, 73.22, 51.8, 66.78, 71.46, 73.4, 29.1, 59, 53.01, None, 30.2, 57.58, 77, 66.2, 30.74, 73.99, None, 17.8, 14, None, 19.4, 61.54, 63.75, 71.6, None, 15.28, 66.2, 89.6, 80.6, None, 75.2, 33.8, 39.2, None, 41, 73.4, 77.31, -26.41, 86, 83.41, None, None, 42.8, 71.6, 35.6, 72.19, 21.2, 79.84, 25.36, 66.99, 22.8, 64.4, 51.8, 70, 81.81, 77, 80.6, None, 78.33, 55.42, 52, 79, 80.6, None, 37.08, 64.4, 71.17, 51.8, 73.4, 77, 71.6, 81.14, 82.4, 57.99, 25.12, 73, 41, 91.45, 21.2, -9.33, 48, 83.71, 81.73, -8.63, 42.8, None, 9.36, 58.17, 56.86, 55.4, 66, None, 67.68, 15.8, None, 79.86, 44.6, 8.8, 15.8, 82.4, 60.01, None, 66.99, 71.6, 82.4, -4, 73.4, 53.01, 73, 76.77, None, 78.49, None, 24.8, 41, None, 32, 31.37, 66.83, 40.24, 44.06, 78.76, 57.99, 29.73, 38.37],52,0,3.49
4035715,Avarua,CK,-21.21,-159.78,            [77, 70, 1.72, None, 84.2, 42.8, 48, 82.4, 77, None, 50, 60.8, 51.8, 55, 50, 66.2, 48.99, 73.98, 53.6, 44.6, 55, None, 71.6, 21.76, 38.97, 77, 61.79, 75.2, 20.1, 65.91, 61, 10.4, 77.95, 63, 84.2, 73.22, 51.8, 66.78, 71.46, 73.4, 29.1, 59, 53.01, None, 30.2, 57.58, 77, 66.2, 30.74, 73.99, None, 17.8, 14, None, 19.4, 61.54, 63.75, 71.6, None, 15.28, 66.2, 89.6, 80.6, None, 75.2, 33.8, 39.2, None, 41, 73.4, 77.31, -26.41, 86, 83.41, None, None, 42.8, 71.6, 35.6, 72.19, 21.2, 79.84, 25.36, 66.99, 22.8, 64.4, 51.8, 70, 81.81, 77, 80.6, None, 78.33, 55.42, 52, 79, 80.6, None, 37.08, 64.4, 71.17, 51.8, 73.4, 77, 71.6, 81.14, 82.4, 57.99, 25.12, 73, 41, 91.45, 21.2, -9.33, 48, 83.71, 81.73, -8.63, 42.8, None, 9.36, 58.17, 56.86, 55.4, 66, None, 67.68, 15.8, None, 79.86, 44.6, 8.8, 15.8, 82.4, 60.01, None, 66.99, 71.6, 82.4, -4, 73.4, 53.01, 73, 76.77, None, 78.49, None, 24.8, 41, None, 32, 31.37, 66.83, 40.24, 44.06, 78.76, 57.99, 29.73, 38.37, None, 78.8],78,3,9.64
3372964,Lagoa,PT,39.05,-27.98,            [77, 70, 1.72, None, 84.2, 42.8, 48, 82.4, 77, None, 50, 60.8, 51.8, 55, 50, 66.2, 48.99, 73.98, 53.6, 44.6, 55, None, 71.6, 21.76, 38.97, 77, 61.79, 75.2, 20.1, 65.91, 61, 10.4, 77.95, 63, 84.2, 73.22, 51.8, 66.78, 71.46, 73.4, 29.1, 59, 53.01, None, 30.2, 57.58, 77, 66.2, 30.74, 73.99, None, 17.8, 14, None, 19.4, 61.54, 63.75, 71.6, None, 15.28, 66.2, 89.6, 80.6, None, 75.2, 33.8, 39.2, None, 41, 73.4, 77.31, -26.41, 86, 83.41, None, None, 42.8, 71.6, 35.6, 72.19, 21.2, 79.84, 25.36, 66.99, 22.8, 64.4, 51.8, 70, 81.81, 77, 80.6, None, 78.33, 55.42, 52, 79, 80.6, None, 37.08, 64.4, 71.17, 51.8, 73.4, 77, 71.6, 81.14, 82.4, 57.99, 25.12, 73, 41, 91.45, 21.2, -9.33, 48, 83.71, 81.73, -8.63, 42.8, None, 9.36, 58.17, 56.86, 55.4, 66, None, 67.68, 15.8, None, 79.86, 44.6, 8.8, 15.8, 82.4, 60.01, None, 66.99, 71.6, 82.4, -4, 73.4, 53.01, 73, 76.77, None, 78.49, None, 24.8, 41, None, 32, 31.37, 66.83, 40.24, 44.06, 78.76, 57.99, 29.73, 38.37, None, 78.8, 65.52],82,100,15.86
3936456,Lima,PE,-12.04,-77.03,            [77, 70, 1.72, None, 84.2, 42.8, 48, 82.4, 77, None, 50, 60.8, 51.8, 55, 50, 66.2, 48.99, 73.98, 53.6, 44.6, 55, None, 71.6, 21.76, 38.97, 77, 61.79, 75.2, 20.1, 65.91, 61, 10.4, 77.95, 63, 84.2, 73.22, 51.8, 66.78, 71.46, 73.4, 29.1, 59, 53.01, None, 30.2, 57.58, 77, 66.2, 30.74, 73.99, None, 17.8, 14, None, 19.4, 61.54, 63.75, 71.6, None, 15.28, 66.2, 89.6, 80.6, None, 75.2, 33.8, 39.2, None, 41, 73.4, 77.31, -26.41, 86, 83.41, None, None, 42.8, 71.6, 35.6, 72.19, 21.2, 79.84, 25.36, 66.99, 22.8, 64.4, 51.8, 70, 81.81, 77, 80.6, None, 78.33, 55.42, 52, 79, 80.6, None, 37.08, 64.4, 71.17, 51.8, 73.4, 77, 71.6, 81.14, 82.4, 57.99, 25.12, 73, 41, 91.45, 21.2, -9.33, 48, 83.71, 81.73, -8.63, 42.8, None, 9.36, 58.17, 56.86, 55.4, 66, None, 67.68, 15.8, None, 79.86, 44.6, 8.8, 15.8, 82.4, 60.01, None, 66.99, 71.6, 82.4, -4, 73.4, 53.01, 73, 76.77, None, 78.49, None, 24.8, 41, None, 32, 31.37, 66.83, 40.24, 44.06, 78.76, 57.99, 29.73, 38.37, None, 78.8, 65.52, 71.6],56,20,11.41
3472473,Alto Araguaia,BR,-17.31,-53.22,            [77, 70, 1.72, None, 84.2, 42.8, 48, 82.4, 77, None, 50, 60.8, 51.8, 55, 50, 66.2, 48.99, 73.98, 53.6, 44.6, 55, None, 71.6, 21.76, 38.97, 77, 61.79, 75.2, 20.1, 65.91, 61, 10.4, 77.95, 63, 84.2, 73.22, 51.8, 66.78, 71.46, 73.4, 29.1, 59, 53.01, None, 30.2, 57.58, 77, 66.2, 30.74, 73.99, None, 17.8, 14, None, 19.4, 61.54, 63.75, 71.6, None, 15.28, 66.2, 89.6, 80.6, None, 75.2, 33.8, 39.2, None, 41, 73.4, 77.31, -26.41, 86, 83.41, None, None, 42.8, 71.6, 35.6, 72.19, 21.2, 79.84, 25.36, 66.99, 22.8, 64.4, 51.8, 70, 81.81, 77, 80.6, None, 78.33, 55.42, 52, 79, 80.6, None, 37.08, 64.4, 71.17, 51.8, 73.4, 77, 71.6, 81.14, 82.4, 57.99, 25.12, 73, 41, 91.45, 21.2, -9.33, 48, 83.71, 81.73, -8.63, 42.8, None, 9.36, 58.17, 56.86, 55.4, 66, None, 67.68, 15.8, None, 79.86, 44.6, 8.8, 15.8, 82.4, 60.01, None, 66.99, 71.6, 82.4, -4, 73.4, 53.01, 73, 76.77, None, 78.49, None, 24.8, 41, None, 32, 31.37, 66.83, 40.24, 44.06, 78.76, 57.99, 29.73, 38.37, None, 78.8, 65.52, 71.6, 60.8, None, 87.31],43,100,7.18
4845585,Westport,US,41.14,-73.36,            [77, 70, 1.72, None, 84.2, 42.8, 48, 82.4, 77, None, 50, 60.8, 51.8, 55, 50, 66.2, 48.99, 73.98, 53.6, 44.6, 55, None, 71.6, 21.76, 38.97, 77, 61.79, 75.2, 20.1, 65.91, 61, 10.4, 77.95, 63, 84.2, 73.22, 51.8, 66.78, 71.46, 73.4, 29.1, 59, 53.01, None, 30.2, 57.58, 77, 66.2, 30.74, 73.99, None, 17.8, 14, None, 19.4, 61.54, 63.75, 71.6, None, 15.28, 66.2, 89.6, 80.6, None, 75.2, 33.8, 39.2, None, 41, 73.4, 77.31, -26.41, 86, 83.41, None, None, 42.8, 71.6, 35.6, 72.19, 21.2, 79.84, 25.36, 66.99, 22.8, 64.4, 51.8, 70, 81.81, 77, 80.6, None, 78.33, 55.42, 52, 79, 80.6, None, 37.08, 64.4, 71.17, 51.8, 73.4, 77, 71.6, 81.14, 82.4, 57.99, 25.12, 73, 41, 91.45, 21.2, -9.33, 48, 83.71, 81.73, -8.63, 42.8, None, 9.36, 58.17, 56.86, 55.4, 66, None, 67.68, 15.8, None, 79.86, 44.6, 8.8, 15.8, 82.4, 60.01, None, 66.99, 71.6, 82.4, -4, 73.4, 53.01, 73, 76.77, None, 78.49, None, 24.8, 41, None, 32, 31.37, 66.83, 40.24, 44.06, 78.76, 57.99, 29.73, 38.37, None, 78.8, 65.52, 71.6, 60.8, None, 87.31, 73],45,1,4.7
6014443,Lac du Bonnet,CA,50.25,-96.06,            [77, 70, 1.72, None, 84.2, 42.8, 48, 82.4, 77, None, 50, 60.8, 51.8, 55, 50, 66.2, 48.99, 73.98, 53.6, 44.6, 55, None, 71.6, 21.76, 38.97, 77, 61.79, 75.2, 20.1, 65.91, 61, 10.4, 77.95, 63, 84.2, 73.22, 51.8, 66.78, 71.46, 73.4, 29.1, 59, 53.01, None, 30.2, 57.58, 77, 66.2, 30.74, 73.99, None, 17.8, 14, None, 19.4, 61.54, 63.75, 71.6, None, 15.28, 66.2, 89.6, 80.6, None, 75.2, 33.8, 39.2, None, 41, 73.4, 77.31, -26.41, 86, 83.41, None, None, 42.8, 71.6, 35.6, 72.19, 21.2, 79.84, 25.36, 66.99, 22.8, 64.4, 51.8, 70, 81.81, 77, 80.6, None, 78.33, 55.42, 52, 79, 80.6, None, 37.08, 64.4, 71.17, 51.8, 73.4, 77, 71.6, 81.14, 82.4, 57.99, 25.12, 73, 41, 91.45, 21.2, -9.33, 48, 83.71, 81.73, -8.63, 42.8, None, 9.36, 58.17, 56.86, 55.4, 66, None, 67.68, 15.8, None, 79.86, 44.6, 8.8, 15.8, 82.4, 60.01, None, 66.99, 71.6, 82.4, -4, 73.4, 53.01, 73, 76.77, None, 78.49, None, 24.8, 41, None, 32, 31.37, 66.83, 40.24, 44.06, 78.76, 57.99, 29.73, 38.37, None, 78.8, 65.52, 71.6, 60.8, None, 87.31, 73, 27],58,99,18.34
1622318,Waingapu,ID,-9.66,120.26,            [77, 70, 1.72, None, 84.2, 42.8, 48, 82.4, 77, None, 50, 60.8, 51.8, 55, 50, 66.2, 48.99, 73.98, 53.6, 44.6, 55, None, 71.6, 21.76, 38.97, 77, 61.79, 75.2, 20.1, 65.91, 61, 10.4, 77.95, 63, 84.2, 73.22, 51.8, 66.78, 71.46, 73.4, 29.1, 59, 53.01, None, 30.2, 57.58, 77, 66.2, 30.74, 73.99, None, 17.8, 14, None, 19.4, 61.54, 63.75, 71.6, None, 15.28, 66.2, 89.6, 80.6, None, 75.2, 33.8, 39.2, None, 41, 73.4, 77.31, -26.41, 86, 83.41, None, None, 42.8, 71.6, 35.6, 72.19, 21.2, 79.84, 25.36, 66.99, 22.8, 64.4, 51.8, 70, 81.81, 77, 80.6, None, 78.33, 55.42, 52, 79, 80.6, None, 37.08, 64.4, 71.17, 51.8, 73.4, 77, 71.6, 81.14, 82.4, 57.99, 25.12, 73, 41, 91.45, 21.2, -9.33, 48, 83.71, 81.73, -8.63, 42.8, None, 9.36, 58.17, 56.86, 55.4, 66, None, 67.68, 15.8, None, 79.86, 44.6, 8.8, 15.8, 82.4, 60.01, None, 66.99, 71.6, 82.4, -4, 73.4, 53.01, 73, 76.77, None, 78.49, None, 24.8, 41, None, 32, 31.37, 66.83, 40.24, 44.06, 78.76, 57.99, 29.73, 38.37, None, 78.8, 65.52, 71.6, 60.8, None, 87.31, 73, 27, 79.68],74,100,3.47
2037069,Hailun,CN,47.45,126.93,            [77, 70, 1.72, None, 84.2, 42.8, 48, 82.4, 77, None, 50, 60.8, 51.8, 55, 50, 66.2, 48.99, 73.98, 53.6, 44.6, 55, None, 71.6, 21.76, 38.97, 77, 61.79, 75.2, 20.1, 65.91, 61, 10.4, 77.95, 63, 84.2, 73.22, 51.8, 66.78, 71.46, 73.4, 29.1, 59, 53.01, None, 30.2, 57.58, 77, 66.2, 30.74, 73.99, None, 17.8, 14, None, 19.4, 61.54, 63.75, 71.6, None, 15.28, 66.2, 89.6, 80.6, None, 75.2, 33.8, 39.2, None, 41, 73.4, 77.31, -26.41, 86, 83.41, None, None, 42.8, 71.6, 35.6, 72.19, 21.2, 79.84, 25.36, 66.99, 22.8, 64.4, 51.8, 70, 81.81, 77, 80.6, None, 78.33, 55.42, 52, 79, 80.6, None, 37.08, 64.4, 71.17, 51.8, 73.4, 77, 71.6, 81.14, 82.4, 57.99, 25.12, 73, 41, 91.45, 21.2, -9.33, 48, 83.71, 81.73, -8.63, 42.8, None, 9.36, 58.17, 56.86, 55.4, 66, None, 67.68, 15.8, None, 79.86, 44.6, 8.8, 15.8, 82.4, 60.01, None, 66.99, 71.6, 82.4, -4, 73.4, 53.01, 73, 76.77, None, 78.49, None, 24.8, 41, None, 32, 31.37, 66.83, 40.24, 44.06, 78.76, 57.99, 29.73, 38.37, None, 78.8, 65.52, 71.6, 60.8, None, 87.31, 73, 27, 79.68, 14.81],89,95,7.38
6167817,Torbay,CA,47.67,-52.73,            [77, 70, 1.72, None, 84.2, 42.8, 48, 82.4, 77, None, 50, 60.8, 51.8, 55, 50, 66.2, 48.99, 73.98, 53.6, 44.6, 55, None, 71.6, 21.76, 38.97, 77, 61.79, 75.2, 20.1, 65.91, 61, 10.4, 77.95, 63, 84.2, 73.22, 51.8, 66.78, 71.46, 73.4, 29.1, 59, 53.01, None, 30.2, 57.58, 77, 66.2, 30.74, 73.99, None, 17.8, 14, None, 19.4, 61.54, 63.75, 71.6, None, 15.28, 66.2, 89.6, 80.6, None, 75.2, 33.8, 39.2, None, 41, 73.4, 77.31, -26.41, 86, 83.41, None, None, 42.8, 71.6, 35.6, 72.19, 21.2, 79.84, 25.36, 66.99, 22.8, 64.4, 51.8, 70, 81.81, 77, 80.6, None, 78.33, 55.42, 52, 79, 80.6, None, 37.08, 64.4, 71.17, 51.8, 73.4, 77, 71.6, 81.14, 82.4, 57.99, 25.12, 73, 41, 91.45, 21.2, -9.33, 48, 83.71, 81.73, -8.63, 42.8, None, 9.36, 58.17, 56.86, 55.4, 66, None, 67.68, 15.8, None, 79.86, 44.6, 8.8, 15.8, 82.4, 60.01, None, 66.99, 71.6, 82.4, -4, 73.4, 53.01, 73, 76.77, None, 78.49, None, 24.8, 41, None, 32, 31.37, 66.83, 40.24, 44.06, 78.76, 57.99, 29.73, 38.37, None, 78.8, 65.52, 71.6, 60.8, None, 87.31, 73, 27, 79.68, 14.81, 37.99],93,90,12.75
2012593,Zeya,RU,53.75,127.27,            [77, 70, 1.72, None, 84.2, 42.8, 48, 82.4, 77, None, 50, 60.8, 51.8, 55, 50, 66.2, 48.99, 73.98, 53.6, 44.6, 55, None, 71.6, 21.76, 38.97, 77, 61.79, 75.2, 20.1, 65.91, 61, 10.4, 77.95, 63, 84.2, 73.22, 51.8, 66.78, 71.46, 73.4, 29.1, 59, 53.01, None, 30.2, 57.58, 77, 66.2, 30.74, 73.99, None, 17.8, 14, None, 19.4, 61.54, 63.75, 71.6, None, 15.28, 66.2, 89.6, 80.6, None, 75.2, 33.8, 39.2, None, 41, 73.4, 77.31, -26.41, 86, 83.41, None, None, 42.8, 71.6, 35.6, 72.19, 21.2, 79.84, 25.36, 66.99, 22.8, 64.4, 51.8, 70, 81.81, 77, 80.6, None, 78.33, 55.42, 52, 79, 80.6, None, 37.08, 64.4, 71.17, 51.8, 73.4, 77, 71.6, 81.14, 82.4, 57.99, 25.12, 73, 41, 91.45, 21.2, -9.33, 48, 83.71, 81.73, -8.63, 42.8, None, 9.36, 58.17, 56.86, 55.4, 66, None, 67.68, 15.8, None, 79.86, 44.6, 8.8, 15.8, 82.4, 60.01, None, 66.99, 71.6, 82.4, -4, 73.4, 53.01, 73, 76.77, None, 78.49, None, 24.8, 41, None, 32, 31.37, 66.83, 40.24, 44.06, 78.76, 57.99, 29.73, 38.37, None, 78.8, 65.52, 71.6, 60.8, None, 87.31, 73, 27, 79.68, 14.81, 37.99, 4.69],86,1,2.01
780687,Berlevåg,NO,70.86,29.09,            [77, 70, 1.72, None, 84.2, 42.8, 48, 82.4, 77, None, 50, 60.8, 51.8, 55, 50, 66.2, 48.99, 73.98, 53.6, 44.6, 55, None, 71.6, 21.76, 38.97, 77, 61.79, 75.2, 20.1, 65.91, 61, 10.4, 77.95, 63, 84.2, 73.22, 51.8, 66.78, 71.46, 73.4, 29.1, 59, 53.01, None, 30.2, 57.58, 77, 66.2, 30.74, 73.99, None, 17.8, 14, None, 19.4, 61.54, 63.75, 71.6, None, 15.28, 66.2, 89.6, 80.6, None, 75.2, 33.8, 39.2, None, 41, 73.4, 77.31, -26.41, 86, 83.41, None, None, 42.8, 71.6, 35.6, 72.19, 21.2, 79.84, 25.36, 66.99, 22.8, 64.4, 51.8, 70, 81.81, 77, 80.6, None, 78.33, 55.42, 52, 79, 80.6, None, 37.08, 64.4, 71.17, 51.8, 73.4, 77, 71.6, 81.14, 82.4, 57.99, 25.12, 73, 41, 91.45, 21.2, -9.33, 48, 83.71, 81.73, -8.63, 42.8, None, 9.36, 58.17, 56.86, 55.4, 66, None, 67.68, 15.8, None, 79.86, 44.6, 8.8, 15.8, 82.4, 60.01, None, 66.99, 71.6, 82.4, -4, 73.4, 53.01, 73, 76.77, None, 78.49, None, 24.8, 41, None, 32, 31.37, 66.83, 40.24, 44.06, 78.76, 57.99, 29.73, 38.37, None, 78.8, 65.52, 71.6, 60.8, None, 87.31, 73, 27, 79.68, 14.81, 37.99, 4.69, None, 37.4],82,75,31.09
1642773,Japura,ID,-0.32,102.35,            [77, 70, 1.72, None, 84.2, 42.8, 48, 82.4, 77, None, 50, 60.8, 51.8, 55, 50, 66.2, 48.99, 73.98, 53.6, 44.6, 55, None, 71.6, 21.76, 38.97, 77, 61.79, 75.2, 20.1, 65.91, 61, 10.4, 77.95, 63, 84.2, 73.22, 51.8, 66.78, 71.46, 73.4, 29.1, 59, 53.01, None, 30.2, 57.58, 77, 66.2, 30.74, 73.99, None, 17.8, 14, None, 19.4, 61.54, 63.75, 71.6, None, 15.28, 66.2, 89.6, 80.6, None, 75.2, 33.8, 39.2, None, 41, 73.4, 77.31, -26.41, 86, 83.41, None, None, 42.8, 71.6, 35.6, 72.19, 21.2, 79.84, 25.36, 66.99, 22.8, 64.4, 51.8, 70, 81.81, 77, 80.6, None, 78.33, 55.42, 52, 79, 80.6, None, 37.08, 64.4, 71.17, 51.8, 73.4, 77, 71.6, 81.14, 82.4, 57.99, 25.12, 73, 41, 91.45, 21.2, -9.33, 48, 83.71, 81.73, -8.63, 42.8, None, 9.36, 58.17, 56.86, 55.4, 66, None, 67.68, 15.8, None, 79.86, 44.6, 8.8, 15.8, 82.4, 60.01, None, 66.99, 71.6, 82.4, -4, 73.4, 53.01, 73, 76.77, None, 78.49, None, 24.8, 41, None, 32, 31.37, 66.83, 40.24, 44.06, 78.76, 57.99, 29.73, 38.37, None, 78.8, 65.52, 71.6, 60.8, None, 87.31, 73, 27, 79.68, 14.81, 37.99, 4.69, None, 37.4, 74.16],98,100,0.74
1299237,Pyapon,MM,16.28,95.68,            [77, 70, 1.72, None, 84.2, 42.8, 48, 82.4, 77, None, 50, 60.8, 51.8, 55, 50, 66.2, 48.99, 73.98, 53.6, 44.6, 55, None, 71.6, 21.76, 38.97, 77, 61.79, 75.2, 20.1, 65.91, 61, 10.4, 77.95, 63, 84.2, 73.22, 51.8, 66.78, 71.46, 73.4, 29.1, 59, 53.01, None, 30.2, 57.58, 77, 66.2, 30.74, 73.99, None, 17.8, 14, None, 19.4, 61.54, 63.75, 71.6, None, 15.28, 66.2, 89.6, 80.6, None, 75.2, 33.8, 39.2, None, 41, 73.4, 77.31, -26.41, 86, 83.41, None, None, 42.8, 71.6, 35.6, 72.19, 21.2, 79.84, 25.36, 66.99, 22.8, 64.4, 51.8, 70, 81.81, 77, 80.6, None, 78.33, 55.42, 52, 79, 80.6, None, 37.08, 64.4, 71.17, 51.8, 73.4, 77, 71.6, 81.14, 82.4, 57.99, 25.12, 73, 41, 91.45, 21.2, -9.33, 48, 83.71, 81.73, -8.63, 42.8, None, 9.36, 58.17, 56.86, 55.4, 66, None, 67.68, 15.8, None, 79.86, 44.6, 8.8, 15.8, 82.4, 60.01, None, 66.99, 71.6, 82.4, -4, 73.4, 53.01, 73, 76.77, None, 78.49, None, 24.8, 41, None, 32, 31.37, 66.83, 40.24, 44.06, 78.76, 57.99, 29.73, 38.37, None, 78.8, 65.52, 71.6, 60.8, None, 87.31, 73, 27, 79.68, 14.81, 37.99, 4.69, None, 37.4, 74.16, 74.16],87,0,6.8
4032420,Neiafu,TO,-18.65,-173.98,            [77, 70, 1.72, None, 84.2, 42.8, 48, 82.4, 77, None, 50, 60.8, 51.8, 55, 50, 66.2, 48.99, 73.98, 53.6, 44.6, 55, None, 71.6, 21.76, 38.97, 77, 61.79, 75.2, 20.1, 65.91, 61, 10.4, 77.95, 63, 84.2, 73.22, 51.8, 66.78, 71.46, 73.4, 29.1, 59, 53.01, None, 30.2, 57.58, 77, 66.2, 30.74, 73.99, None, 17.8, 14, None, 19.4, 61.54, 63.75, 71.6, None, 15.28, 66.2, 89.6, 80.6, None, 75.2, 33.8, 39.2, None, 41, 73.4, 77.31, -26.41, 86, 83.41, None, None, 42.8, 71.6, 35.6, 72.19, 21.2, 79.84, 25.36, 66.99, 22.8, 64.4, 51.8, 70, 81.81, 77, 80.6, None, 78.33, 55.42, 52, 79, 80.6, None, 37.08, 64.4, 71.17, 51.8, 73.4, 77, 71.6, 81.14, 82.4, 57.99, 25.12, 73, 41, 91.45, 21.2, -9.33, 48, 83.71, 81.73, -8.63, 42.8, None, 9.36, 58.17, 56.86, 55.4, 66, None, 67.68, 15.8, None, 79.86, 44.6, 8.8, 15.8, 82.4, 60.01, None, 66.99, 71.6, 82.4, -4, 73.4, 53.01, 73, 76.77, None, 78.49, None, 24.8, 41, None, 32, 31.37, 66.83, 40.24, 44.06, 78.76, 57.99, 29.73, 38.37, None, 78.8, 65.52, 71.6, 60.8, None, 87.31, 73, 27, 79.68, 14.81, 37.99, 4.69, None, 37.4, 74.16, 74.16, 80.6],74,40,6.93
5866063,Kenai,US,60.55,-151.26,            [77, 70, 1.72, None, 84.2, 42.8, 48, 82.4, 77, None, 50, 60.8, 51.8, 55, 50, 66.2, 48.99, 73.98, 53.6, 44.6, 55, None, 71.6, 21.76, 38.97, 77, 61.79, 75.2, 20.1, 65.91, 61, 10.4, 77.95, 63, 84.2, 73.22, 51.8, 66.78, 71.46, 73.4, 29.1, 59, 53.01, None, 30.2, 57.58, 77, 66.2, 30.74, 73.99, None, 17.8, 14, None, 19.4, 61.54, 63.75, 71.6, None, 15.28, 66.2, 89.6, 80.6, None, 75.2, 33.8, 39.2, None, 41, 73.4, 77.31, -26.41, 86, 83.41, None, None, 42.8, 71.6, 35.6, 72.19, 21.2, 79.84, 25.36, 66.99, 22.8, 64.4, 51.8, 70, 81.81, 77, 80.6, None, 78.33, 55.42, 52, 79, 80.6, None, 37.08, 64.4, 71.17, 51.8, 73.4, 77, 71.6, 81.14, 82.4, 57.99, 25.12, 73, 41, 91.45, 21.2, -9.33, 48, 83.71, 81.73, -8.63, 42.8, None, 9.36, 58.17, 56.86, 55.4, 66, None, 67.68, 15.8, None, 79.86, 44.6, 8.8, 15.8, 82.4, 60.01, None, 66.99, 71.6, 82.4, -4, 73.4, 53.01, 73, 76.77, None, 78.49, None, 24.8, 41, None, 32, 31.37, 66.83, 40.24, 44.06, 78.76, 57.99, 29.73, 38.37, None, 78.8, 65.52, 71.6, 60.8, None, 87.31, 73, 27, 79.68, 14.81, 37.99, 4.69, None, 37.4, 74.16, 74.16, 80.6, 30],85,1,3.36
5937252,Deer Lake,CA,49.17,-57.43,            [77, 70, 1.72, None, 84.2, 42.8, 48, 82.4, 77, None, 50, 60.8, 51.8, 55, 50, 66.2, 48.99, 73.98, 53.6, 44.6, 55, None, 71.6, 21.76, 38.97, 77, 61.79, 75.2, 20.1, 65.91, 61, 10.4, 77.95, 63, 84.2, 73.22, 51.8, 66.78, 71.46, 73.4, 29.1, 59, 53.01, None, 30.2, 57.58, 77, 66.2, 30.74, 73.99, None, 17.8, 14, None, 19.4, 61.54, 63.75, 71.6, None, 15.28, 66.2, 89.6, 80.6, None, 75.2, 33.8, 39.2, None, 41, 73.4, 77.31, -26.41, 86, 83.41, None, None, 42.8, 71.6, 35.6, 72.19, 21.2, 79.84, 25.36, 66.99, 22.8, 64.4, 51.8, 70, 81.81, 77, 80.6, None, 78.33, 55.42, 52, 79, 80.6, None, 37.08, 64.4, 71.17, 51.8, 73.4, 77, 71.6, 81.14, 82.4, 57.99, 25.12, 73, 41, 91.45, 21.2, -9.33, 48, 83.71, 81.73, -8.63, 42.8, None, 9.36, 58.17, 56.86, 55.4, 66, None, 67.68, 15.8, None, 79.86, 44.6, 8.8, 15.8, 82.4, 60.01, None, 66.99, 71.6, 82.4, -4, 73.4, 53.01, 73, 76.77, None, 78.49, None, 24.8, 41, None, 32, 31.37, 66.83, 40.24, 44.06, 78.76, 57.99, 29.73, 38.37, None, 78.8, 65.52, 71.6, 60.8, None, 87.31, 73, 27, 79.68, 14.81, 37.99, 4.69, None, 37.4, 74.16, 74.16, 80.6, 30, 39.2],86,90,6.93
2221530,Tibati,CM,6.47,12.63,            [77, 70, 1.72, None, 84.2, 42.8, 48, 82.4, 77, None, 50, 60.8, 51.8, 55, 50, 66.2, 48.99, 73.98, 53.6, 44.6, 55, None, 71.6, 21.76, 38.97, 77, 61.79, 75.2, 20.1, 65.91, 61, 10.4, 77.95, 63, 84.2, 73.22, 51.8, 66.78, 71.46, 73.4, 29.1, 59, 53.01, None, 30.2, 57.58, 77, 66.2, 30.74, 73.99, None, 17.8, 14, None, 19.4, 61.54, 63.75, 71.6, None, 15.28, 66.2, 89.6, 80.6, None, 75.2, 33.8, 39.2, None, 41, 73.4, 77.31, -26.41, 86, 83.41, None, None, 42.8, 71.6, 35.6, 72.19, 21.2, 79.84, 25.36, 66.99, 22.8, 64.4, 51.8, 70, 81.81, 77, 80.6, None, 78.33, 55.42, 52, 79, 80.6, None, 37.08, 64.4, 71.17, 51.8, 73.4, 77, 71.6, 81.14, 82.4, 57.99, 25.12, 73, 41, 91.45, 21.2, -9.33, 48, 83.71, 81.73, -8.63, 42.8, None, 9.36, 58.17, 56.86, 55.4, 66, None, 67.68, 15.8, None, 79.86, 44.6, 8.8, 15.8, 82.4, 60.01, None, 66.99, 71.6, 82.4, -4, 73.4, 53.01, 73, 76.77, None, 78.49, None, 24.8, 41, None, 32, 31.37, 66.83, 40.24, 44.06, 78.76, 57.99, 29.73, 38.37, None, 78.8, 65.52, 71.6, 60.8, None, 87.31, 73, 27, 79.68, 14.81, 37.99, 4.69, None, 37.4, 74.16, 74.16, 80.6, 30, 39.2, 72.21],52,18,4.72
3911925,La Paz,BO,-16.5,-68.15,            [77, 70, 1.72, None, 84.2, 42.8, 48, 82.4, 77, None, 50, 60.8, 51.8, 55, 50, 66.2, 48.99, 73.98, 53.6, 44.6, 55, None, 71.6, 21.76, 38.97, 77, 61.79, 75.2, 20.1, 65.91, 61, 10.4, 77.95, 63, 84.2, 73.22, 51.8, 66.78, 71.46, 73.4, 29.1, 59, 53.01, None, 30.2, 57.58, 77, 66.2, 30.74, 73.99, None, 17.8, 14, None, 19.4, 61.54, 63.75, 71.6, None, 15.28, 66.2, 89.6, 80.6, None, 75.2, 33.8, 39.2, None, 41, 73.4, 77.31, -26.41, 86, 83.41, None, None, 42.8, 71.6, 35.6, 72.19, 21.2, 79.84, 25.36, 66.99, 22.8, 64.4, 51.8, 70, 81.81, 77, 80.6, None, 78.33, 55.42, 52, 79, 80.6, None, 37.08, 64.4, 71.17, 51.8, 73.4, 77, 71.6, 81.14, 82.4, 57.99, 25.12, 73, 41, 91.45, 21.2, -9.33, 48, 83.71, 81.73, -8.63, 42.8, None, 9.36, 58.17, 56.86, 55.4, 66, None, 67.68, 15.8, None, 79.86, 44.6, 8.8, 15.8, 82.4, 60.01, None, 66.99, 71.6, 82.4, -4, 73.4, 53.01, 73, 76.77, None, 78.49, None, 24.8, 41, None, 32, 31.37, 66.83, 40.24, 44.06, 78.76, 57.99, 29.73, 38.37, None, 78.8, 65.52, 71.6, 60.8, None, 87.31, 73, 27, 79.68, 14.81, 37.99, 4.69, None, 37.4, 74.16, 74.16, 80.6, 30, 39.2, 72.21, 62.6],45,40,16.11
3352136,Windhoek,NA,-22.56,17.08,            [77, 70, 1.72, None, 84.2, 42.8, 48, 82.4, 77, None, 50, 60.8, 51.8, 55, 50, 66.2, 48.99, 73.98, 53.6, 44.6, 55, None, 71.6, 21.76, 38.97, 77, 61.79, 75.2, 20.1, 65.91, 61, 10.4, 77.95, 63, 84.2, 73.22, 51.8, 66.78, 71.46, 73.4, 29.1, 59, 53.01, None, 30.2, 57.58, 77, 66.2, 30.74, 73.99, None, 17.8, 14, None, 19.4, 61.54, 63.75, 71.6, None, 15.28, 66.2, 89.6, 80.6, None, 75.2, 33.8, 39.2, None, 41, 73.4, 77.31, -26.41, 86, 83.41, None, None, 42.8, 71.6, 35.6, 72.19, 21.2, 79.84, 25.36, 66.99, 22.8, 64.4, 51.8, 70, 81.81, 77, 80.6, None, 78.33, 55.42, 52, 79, 80.6, None, 37.08, 64.4, 71.17, 51.8, 73.4, 77, 71.6, 81.14, 82.4, 57.99, 25.12, 73, 41, 91.45, 21.2, -9.33, 48, 83.71, 81.73, -8.63, 42.8, None, 9.36, 58.17, 56.86, 55.4, 66, None, 67.68, 15.8, None, 79.86, 44.6, 8.8, 15.8, 82.4, 60.01, None, 66.99, 71.6, 82.4, -4, 73.4, 53.01, 73, 76.77, None, 78.49, None, 24.8, 41, None, 32, 31.37, 66.83, 40.24, 44.06, 78.76, 57.99, 29.73, 38.37, None, 78.8, 65.52, 71.6, 60.8, None, 87.31, 73, 27, 79.68, 14.81, 37.99, 4.69, None, 37.4, 74.16, 74.16, 80.6, 30, 39.2, 72.21, 62.6, 75.2],23,31,3.36
2729907,Longyearbyen,SJ,78.22,15.64,            [77, 70, 1.72, None, 84.2, 42.8, 48, 82.4, 77, None, 50, 60.8, 51.8, 55, 50, 66.2, 48.99, 73.98, 53.6, 44.6, 55, None, 71.6, 21.76, 38.97, 77, 61.79, 75.2, 20.1, 65.91, 61, 10.4, 77.95, 63, 84.2, 73.22, 51.8, 66.78, 71.46, 73.4, 29.1, 59, 53.01, None, 30.2, 57.58, 77, 66.2, 30.74, 73.99, None, 17.8, 14, None, 19.4, 61.54, 63.75, 71.6, None, 15.28, 66.2, 89.6, 80.6, None, 75.2, 33.8, 39.2, None, 41, 73.4, 77.31, -26.41, 86, 83.41, None, None, 42.8, 71.6, 35.6, 72.19, 21.2, 79.84, 25.36, 66.99, 22.8, 64.4, 51.8, 70, 81.81, 77, 80.6, None, 78.33, 55.42, 52, 79, 80.6, None, 37.08, 64.4, 71.17, 51.8, 73.4, 77, 71.6, 81.14, 82.4, 57.99, 25.12, 73, 41, 91.45, 21.2, -9.33, 48, 83.71, 81.73, -8.63, 42.8, None, 9.36, 58.17, 56.86, 55.4, 66, None, 67.68, 15.8, None, 79.86, 44.6, 8.8, 15.8, 82.4, 60.01, None, 66.99, 71.6, 82.4, -4, 73.4, 53.01, 73, 76.77, None, 78.49, None, 24.8, 41, None, 32, 31.37, 66.83, 40.24, 44.06, 78.76, 57.99, 29.73, 38.37, None, 78.8, 65.52, 71.6, 60.8, None, 87.31, 73, 27, 79.68, 14.81, 37.99, 4.69, None, 37.4, 74.16, 74.16, 80.6, 30, 39.2, 72.21, 62.6, 75.2, 24.8],73,75,2.24
6089245,Norman Wells,CA,65.28,-126.83,            [77, 70, 1.72, None, 84.2, 42.8, 48, 82.4, 77, None, 50, 60.8, 51.8, 55, 50, 66.2, 48.99, 73.98, 53.6, 44.6, 55, None, 71.6, 21.76, 38.97, 77, 61.79, 75.2, 20.1, 65.91, 61, 10.4, 77.95, 63, 84.2, 73.22, 51.8, 66.78, 71.46, 73.4, 29.1, 59, 53.01, None, 30.2, 57.58, 77, 66.2, 30.74, 73.99, None, 17.8, 14, None, 19.4, 61.54, 63.75, 71.6, None, 15.28, 66.2, 89.6, 80.6, None, 75.2, 33.8, 39.2, None, 41, 73.4, 77.31, -26.41, 86, 83.41, None, None, 42.8, 71.6, 35.6, 72.19, 21.2, 79.84, 25.36, 66.99, 22.8, 64.4, 51.8, 70, 81.81, 77, 80.6, None, 78.33, 55.42, 52, 79, 80.6, None, 37.08, 64.4, 71.17, 51.8, 73.4, 77, 71.6, 81.14, 82.4, 57.99, 25.12, 73, 41, 91.45, 21.2, -9.33, 48, 83.71, 81.73, -8.63, 42.8, None, 9.36, 58.17, 56.86, 55.4, 66, None, 67.68, 15.8, None, 79.86, 44.6, 8.8, 15.8, 82.4, 60.01, None, 66.99, 71.6, 82.4, -4, 73.4, 53.01, 73, 76.77, None, 78.49, None, 24.8, 41, None, 32, 31.37, 66.83, 40.24, 44.06, 78.76, 57.99, 29.73, 38.37, None, 78.8, 65.52, 71.6, 60.8, None, 87.31, 73, 27, 79.68, 14.81, 37.99, 4.69, None, 37.4, 74.16, 74.16, 80.6, 30, 39.2, 72.21, 62.6, 75.2, 24.8, 19.4],92,90,23.04
6171633,Ucluelet,CA,48.93,-125.55,            [77, 70, 1.72, None, 84.2, 42.8, 48, 82.4, 77, None, 50, 60.8, 51.8, 55, 50, 66.2, 48.99, 73.98, 53.6, 44.6, 55, None, 71.6, 21.76, 38.97, 77, 61.79, 75.2, 20.1, 65.91, 61, 10.4, 77.95, 63, 84.2, 73.22, 51.8, 66.78, 71.46, 73.4, 29.1, 59, 53.01, None, 30.2, 57.58, 77, 66.2, 30.74, 73.99, None, 17.8, 14, None, 19.4, 61.54, 63.75, 71.6, None, 15.28, 66.2, 89.6, 80.6, None, 75.2, 33.8, 39.2, None, 41, 73.4, 77.31, -26.41, 86, 83.41, None, None, 42.8, 71.6, 35.6, 72.19, 21.2, 79.84, 25.36, 66.99, 22.8, 64.4, 51.8, 70, 81.81, 77, 80.6, None, 78.33, 55.42, 52, 79, 80.6, None, 37.08, 64.4, 71.17, 51.8, 73.4, 77, 71.6, 81.14, 82.4, 57.99, 25.12, 73, 41, 91.45, 21.2, -9.33, 48, 83.71, 81.73, -8.63, 42.8, None, 9.36, 58.17, 56.86, 55.4, 66, None, 67.68, 15.8, None, 79.86, 44.6, 8.8, 15.8, 82.4, 60.01, None, 66.99, 71.6, 82.4, -4, 73.4, 53.01, 73, 76.77, None, 78.49, None, 24.8, 41, None, 32, 31.37, 66.83, 40.24, 44.06, 78.76, 57.99, 29.73, 38.37, None, 78.8, 65.52, 71.6, 60.8, None, 87.31, 73, 27, 79.68, 14.81, 37.99, 4.69, None, 37.4, 74.16, 74.16, 80.6, 30, 39.2, 72.21, 62.6, 75.2, 24.8, 19.4, 60.8, None, 44.6],87,90,11.41
1139715,Jalalabad,AF,34.43,70.45,            [77, 70, 1.72, None, 84.2, 42.8, 48, 82.4, 77, None, 50, 60.8, 51.8, 55, 50, 66.2, 48.99, 73.98, 53.6, 44.6, 55, None, 71.6, 21.76, 38.97, 77, 61.79, 75.2, 20.1, 65.91, 61, 10.4, 77.95, 63, 84.2, 73.22, 51.8, 66.78, 71.46, 73.4, 29.1, 59, 53.01, None, 30.2, 57.58, 77, 66.2, 30.74, 73.99, None, 17.8, 14, None, 19.4, 61.54, 63.75, 71.6, None, 15.28, 66.2, 89.6, 80.6, None, 75.2, 33.8, 39.2, None, 41, 73.4, 77.31, -26.41, 86, 83.41, None, None, 42.8, 71.6, 35.6, 72.19, 21.2, 79.84, 25.36, 66.99, 22.8, 64.4, 51.8, 70, 81.81, 77, 80.6, None, 78.33, 55.42, 52, 79, 80.6, None, 37.08, 64.4, 71.17, 51.8, 73.4, 77, 71.6, 81.14, 82.4, 57.99, 25.12, 73, 41, 91.45, 21.2, -9.33, 48, 83.71, 81.73, -8.63, 42.8, None, 9.36, 58.17, 56.86, 55.4, 66, None, 67.68, 15.8, None, 79.86, 44.6, 8.8, 15.8, 82.4, 60.01, None, 66.99, 71.6, 82.4, -4, 73.4, 53.01, 73, 76.77, None, 78.49, None, 24.8, 41, None, 32, 31.37, 66.83, 40.24, 44.06, 78.76, 57.99, 29.73, 38.37, None, 78.8, 65.52, 71.6, 60.8, None, 87.31, 73, 27, 79.68, 14.81, 37.99, 4.69, None, 37.4, 74.16, 74.16, 80.6, 30, 39.2, 72.21, 62.6, 75.2, 24.8, 19.4, 60.8, None, 44.6, 63.57],29,100,1.34
70979,Sayyan,YE,15.17,44.32,            [77, 70, 1.72, None, 84.2, 42.8, 48, 82.4, 77, None, 50, 60.8, 51.8, 55, 50, 66.2, 48.99, 73.98, 53.6, 44.6, 55, None, 71.6, 21.76, 38.97, 77, 61.79, 75.2, 20.1, 65.91, 61, 10.4, 77.95, 63, 84.2, 73.22, 51.8, 66.78, 71.46, 73.4, 29.1, 59, 53.01, None, 30.2, 57.58, 77, 66.2, 30.74, 73.99, None, 17.8, 14, None, 19.4, 61.54, 63.75, 71.6, None, 15.28, 66.2, 89.6, 80.6, None, 75.2, 33.8, 39.2, None, 41, 73.4, 77.31, -26.41, 86, 83.41, None, None, 42.8, 71.6, 35.6, 72.19, 21.2, 79.84, 25.36, 66.99, 22.8, 64.4, 51.8, 70, 81.81, 77, 80.6, None, 78.33, 55.42, 52, 79, 80.6, None, 37.08, 64.4, 71.17, 51.8, 73.4, 77, 71.6, 81.14, 82.4, 57.99, 25.12, 73, 41, 91.45, 21.2, -9.33, 48, 83.71, 81.73, -8.63, 42.8, None, 9.36, 58.17, 56.86, 55.4, 66, None, 67.68, 15.8, None, 79.86, 44.6, 8.8, 15.8, 82.4, 60.01, None, 66.99, 71.6, 82.4, -4, 73.4, 53.01, 73, 76.77, None, 78.49, None, 24.8, 41, None, 32, 31.37, 66.83, 40.24, 44.06, 78.76, 57.99, 29.73, 38.37, None, 78.8, 65.52, 71.6, 60.8, None, 87.31, 73, 27, 79.68, 14.81, 37.99, 4.69, None, 37.4, 74.16, 74.16, 80.6, 30, 39.2, 72.21, 62.6, 75.2, 24.8, 19.4, 60.8, None, 44.6, 63.57, 53.6],43,0,7.16
1214026,Sabang,ID,5.89,95.32,            [77, 70, 1.72, None, 84.2, 42.8, 48, 82.4, 77, None, 50, 60.8, 51.8, 55, 50, 66.2, 48.99, 73.98, 53.6, 44.6, 55, None, 71.6, 21.76, 38.97, 77, 61.79, 75.2, 20.1, 65.91, 61, 10.4, 77.95, 63, 84.2, 73.22, 51.8, 66.78, 71.46, 73.4, 29.1, 59, 53.01, None, 30.2, 57.58, 77, 66.2, 30.74, 73.99, None, 17.8, 14, None, 19.4, 61.54, 63.75, 71.6, None, 15.28, 66.2, 89.6, 80.6, None, 75.2, 33.8, 39.2, None, 41, 73.4, 77.31, -26.41, 86, 83.41, None, None, 42.8, 71.6, 35.6, 72.19, 21.2, 79.84, 25.36, 66.99, 22.8, 64.4, 51.8, 70, 81.81, 77, 80.6, None, 78.33, 55.42, 52, 79, 80.6, None, 37.08, 64.4, 71.17, 51.8, 73.4, 77, 71.6, 81.14, 82.4, 57.99, 25.12, 73, 41, 91.45, 21.2, -9.33, 48, 83.71, 81.73, -8.63, 42.8, None, 9.36, 58.17, 56.86, 55.4, 66, None, 67.68, 15.8, None, 79.86, 44.6, 8.8, 15.8, 82.4, 60.01, None, 66.99, 71.6, 82.4, -4, 73.4, 53.01, 73, 76.77, None, 78.49, None, 24.8, 41, None, 32, 31.37, 66.83, 40.24, 44.06, 78.76, 57.99, 29.73, 38.37, None, 78.8, 65.52, 71.6, 60.8, None, 87.31, 73, 27, 79.68, 14.81, 37.99, 4.69, None, 37.4, 74.16, 74.16, 80.6, 30, 39.2, 72.21, 62.6, 75.2, 24.8, 19.4, 60.8, None, 44.6, 63.57, 53.6, 80.82],77,85,4.27
