,City,Cloudiness,Country,Date,Humidity,Lat,Lng,Max Temp,Wind Speed
0,Hilo,90,US,1606106761,88,19.73,-155.09,75.2,5.82
1,Port Elizabeth,40,ZA,1606106734,93,-33.92,25.57,62.6,3.36
2,Hermanus,95,ZA,1606106801,86,-34.42,19.23,60.01,5.7
3,Yarim,25,YE,1606106801,40,14.3,44.38,54.88,4.34
4,Port Macquarie,40,AU,1606106786,51,-31.43,152.92,84.2,8.05
5,Husavik,0,IS,1606106802,85,66.04,-17.34,15.8,9.95
6,Yellowknife,75,CA,1606106802,84,62.46,-114.35,3.2,16.11
7,Morón,0,AR,1606106724,60,-34.65,-58.62,73.0,5.01
8,Chapais,90,CA,1606106802,92,49.78,-74.85,19.4,5.82
9,Rikitea,100,PF,1606106802,75,-23.12,-134.97,74.19,7.99
10,Henties Bay,7,NA,1606106802,90,-22.12,14.28,57.99,1.01
11,Byron Bay,0,AU,1606106803,51,-28.65,153.62,97.0,16.11
12,Kaitangata,55,NZ,1606106631,62,-46.28,169.85,55.99,8.01
13,Buala,64,SB,1606106803,72,-8.14,159.59,83.97,3.76
14,Raudeberg,100,NO,1606106803,75,61.99,5.14,41.0,9.17
15,Butaritari,56,KI,1606106718,78,3.07,172.79,80.98,12.17
16,Severo-Kuril'sk,88,RU,1606106803,92,50.68,156.12,32.38,31.21
17,Anchorage,40,US,1606106678,85,61.22,-149.9,30.99,3.36
18,Castro,34,BR,1606106804,95,-24.79,-50.01,57.24,9.84
19,Jamestown,90,US,1606106804,93,42.1,-79.24,41.0,10.29
20,Nikolskoye,75,RU,1606106804,86,59.7,30.79,41.0,6.71
21,Northam,75,GB,1606106804,97,51.03,-4.22,44.01,4.0
22,Egvekinot,100,RU,1606106801,98,66.32,-179.17,20.34,7.63
23,Half Moon Bay,1,US,1606106805,87,37.46,-122.43,52.0,5.82
24,Isangel,6,VU,1606106785,66,-19.55,169.27,78.46,12.41
25,North Platte,1,US,1606106805,67,41.12,-100.77,19.4,5.82
26,Hithadhoo,71,MV,1606106805,73,-0.6,73.08,82.65,6.89
27,Atuona,10,PF,1606106805,71,-9.8,-139.03,78.12,11.48
28,Tomatlán,0,MX,1606106806,94,19.93,-105.25,70.97,2.13
29,Mehamn,75,NO,1606106806,87,71.04,27.85,32.0,4.7
30,Tuktoyaktuk,5,CA,1606106806,84,69.45,-133.04,-0.4,14.99
31,Mattru,32,SL,1606106806,96,7.62,-11.83,72.81,1.81
32,Palkino,75,RU,1606106806,93,57.54,28.01,41.0,8.95
33,Bilma,0,NE,1606106806,31,18.69,12.92,62.82,5.53
34,Ushuaia,20,AR,1606106630,70,-54.8,-68.3,44.6,4.7
35,Kapaa,90,US,1606106807,78,22.08,-159.32,75.99,16.11
36,Cabo San Lucas,5,MX,1606106560,57,22.89,-109.91,75.2,7.16
37,Turukhansk,98,RU,1606106807,94,65.82,87.98,3.07,6.29
38,São Filipe,84,CV,1606106807,75,14.9,-24.5,76.57,3.36
39,Young,0,UY,1606106808,77,-32.68,-57.63,58.98,9.89
40,São Caetano do Sul,20,BR,1606106808,77,-23.62,-46.55,66.99,5.82
41,Kanniyākumāri,12,IN,1606106808,54,8.08,77.57,83.12,10.71
42,Barrow,1,US,1606106702,85,71.29,-156.79,10.4,12.75
43,Pacific Grove,75,US,1606106789,87,36.62,-121.92,53.01,8.05
44,Bintulu,40,MY,1606106730,74,3.17,113.03,87.8,4.7
45,Namatanai,91,PG,1606106809,63,-3.67,152.43,85.12,5.95
46,Hofn,92,IS,1606106743,87,64.25,-15.21,34.86,13.82
47,Provideniya,75,RU,1606106809,86,64.38,-173.3,30.2,2.24
48,Airai,48,TL,1606106809,68,-8.93,125.41,76.01,3.02
49,Chegdomyn,100,RU,1606106810,89,51.12,133.02,9.88,2.46
50,Isla Mujeres,40,MX,1606106810,83,21.23,-86.73,80.01,10.38
51,Mataura,100,NZ,1606106722,57,-46.19,168.86,59.0,5.01
52,Umm Hājar,94,TD,1606106810,28,13.3,19.7,70.79,10.18
53,Zhezkazgan,85,KZ,1606106810,97,47.8,67.71,21.2,8.93
54,Sulangan,100,PH,1606106810,75,11.14,123.72,80.51,22.12
55,Samarai,68,PG,1606106760,78,-10.62,150.67,82.44,11.16
56,Sibu,40,MY,1606106811,70,2.3,111.82,86.0,3.36
57,Chokurdakh,100,RU,1606106724,95,70.63,147.92,5.59,9.33
58,Alihe,0,CN,1606106811,81,50.57,123.72,25.0,8.5
59,Saldanha,73,ZA,1606106784,82,-33.01,17.94,55.4,1.12
60,Kerema,48,PG,1606106811,76,-7.96,145.78,83.89,8.72
61,Mae Sai,0,TH,1606106811,61,20.43,99.88,82.0,6.93
62,Pisco,52,PE,1606106748,82,-13.7,-76.22,63.0,3.22
63,Bassar,13,TG,1606106812,50,9.25,0.78,69.17,1.72
64,Saint-Joseph,68,RE,1606106812,65,-21.37,55.62,77.0,24.16
65,Los Llanos de Aridane,0,ES,1606106812,64,28.66,-17.92,68.0,8.05
66,Nome,90,US,1606106652,92,64.5,-165.41,30.2,9.17
67,Ust'-Karsk,5,RU,1606106812,83,52.7,118.81,22.19,4.97
68,Busselton,0,AU,1606106614,31,-33.65,115.33,88.0,5.77
69,Tasiilaq,100,GL,1606106813,73,65.61,-37.64,21.2,3.36
70,Port Augusta,41,AU,1606106813,56,-32.5,137.77,73.0,17.22
71,Lebu,0,CL,1606106813,89,-37.62,-73.65,51.42,3.22
72,Oktyabr'skiy,100,RU,1606106813,91,54.48,53.47,20.03,8.68
73,Tiznit Province,2,MA,1606106814,36,29.58,-9.5,57.97,2.62
74,Sistranda,75,NO,1606106814,81,63.73,8.83,42.8,28.86
75,Fort Nelson,5,CA,1606106706,83,58.81,-122.7,-4.0,3.36
76,Hong Kong,88,HK,1606106707,85,22.29,114.16,75.0,1.99
77,New Norfolk,77,AU,1606106814,56,-42.78,147.06,69.01,1.99
78,Izhma,100,RU,1606106815,94,65.01,53.91,23.61,12.44
79,Arraial do Cabo,93,BR,1606106815,75,-22.97,-42.03,72.1,9.17
80,Vestmannaeyjar,16,IS,1606106815,77,63.44,-20.27,37.72,17.18
81,Banjar,40,ID,1606106815,79,-8.19,114.97,84.2,4.7
82,Saint Paul Harbor,90,US,1606106722,86,57.79,-152.41,37.4,33.33
83,Celestún,0,MX,1606106816,84,20.87,-90.4,75.4,10.56
84,Timrå,100,SE,1606106816,60,62.49,17.33,44.01,6.93
85,Hohhot,0,CN,1606106782,62,40.81,111.65,19.4,4.47
86,Khromtau,98,KZ,1606106816,87,50.25,58.43,16.3,3.04
87,Xining,60,CN,1606106816,86,36.62,101.77,27.9,1.86
88,Bethel,90,US,1606106667,100,41.37,-73.41,52.0,5.82
89,Port Alfred,94,ZA,1606106727,84,-33.59,26.89,65.39,5.21
90,Katsuura,75,JP,1606106817,37,35.13,140.3,68.0,14.99
91,Bilibino,100,RU,1606106817,91,68.05,166.44,0.61,1.83
92,Tiksi,0,RU,1606106817,90,71.69,128.87,-7.62,5.75
93,Sioux Lookout,90,CA,1606106817,66,50.1,-91.92,14.0,6.93
94,Cape Town,40,ZA,1606106675,87,-33.93,18.42,63.0,5.82
95,Kamina,100,CD,1606106817,90,-8.74,24.99,67.08,1.72
96,Torbay,5,CA,1606106818,73,47.67,-52.73,21.2,5.82
97,George Town,40,MY,1606106581,74,5.41,100.34,87.8,9.17
98,Buraidah,20,SA,1606106818,71,26.33,43.98,53.6,2.24
99,Longyearbyen,75,SJ,1606106818,73,78.22,15.64,21.2,3.36
100,Cherskiy,100,RU,1606106800,94,68.75,161.3,4.03,5.53
101,Albany,100,US,1606106733,77,42.6,-73.97,43.0,7.47
102,Coquimbo,18,CL,1606106665,82,-29.95,-71.34,57.2,2.24
103,Moravský Krumlov,90,CZ,1606106819,88,49.05,16.31,34.0,2.24
104,Bathsheba,40,BB,1606106740,78,13.22,-59.52,78.8,18.34
105,Hancheng,100,CN,1606106787,94,32.52,112.35,37.2,7.0
106,Sassandra,99,CI,1606106819,88,4.95,-6.08,76.5,4.38
107,Muros,27,ES,1606106819,100,42.78,-9.06,53.01,4.74
108,Cidreira,4,BR,1606106722,73,-30.18,-50.21,66.15,13.85
109,Lucapa,100,AO,1606106820,95,-8.42,20.74,67.03,1.83
110,Naze,75,JP,1606106820,64,28.37,129.48,73.4,13.87
111,Vaini,75,TO,1606106734,74,-21.2,-175.2,78.8,8.05
112,Maceió,40,BR,1606106700,94,-9.67,-35.74,73.4,2.24
113,Mar del Plata,0,AR,1606106821,77,-38.0,-57.56,66.0,10.29
114,Impfondo,92,CG,1606106821,89,1.64,18.07,71.11,1.41
115,Sillamäe,99,EE,1606106822,83,59.4,27.75,42.96,15.57
116,Mahemdāvād,0,IN,1606106822,46,22.83,72.77,69.8,8.05
117,Lagoa,60,PT,1606106822,73,39.05,-27.98,61.66,6.4
118,Saint-Philippe,80,RE,1606106822,65,-21.36,55.77,77.0,24.16
119,Honiara,40,SB,1606106822,70,-9.43,159.95,87.8,3.36
120,Ancud,90,CL,1606106822,81,-41.87,-73.82,53.01,6.93
121,Faya,0,SA,1606106823,31,18.39,42.45,48.2,1.95
122,Athabasca,100,CA,1606106636,85,54.72,-113.29,15.8,5.82
123,Lakes Entrance,86,AU,1606106823,69,-37.88,147.98,69.01,1.01
124,Khovd,0,MN,1606106823,79,48.01,91.64,18.72,0.47
125,Shirgaon,0,IN,1606106823,61,19.7,72.7,77.0,3.36
126,Kruisfontein,54,ZA,1606106806,94,-34.0,24.73,61.0,5.35
127,Lompoc,20,US,1606106700,87,34.64,-120.46,51.8,6.93
128,Malanje,100,AO,1606106824,99,-9.54,16.34,64.76,3.8
129,Bredasdorp,71,ZA,1606106824,93,-34.53,20.04,55.4,4.7
130,Bluff,90,NZ,1606106824,57,-46.6,168.33,59.0,5.01
131,Padilla,40,CO,1606106824,83,3.22,-76.31,71.6,4.7
132,Baghdad,0,IQ,1606106786,71,33.34,44.4,51.8,5.82
133,Ribeira Grande,2,PT,1606106631,73,38.52,-28.7,62.06,4.45
134,Lüderitz,13,NA,1606106764,93,-26.65,15.16,55.4,6.93
135,Lakselv,97,NO,1606106825,92,70.05,24.97,28.4,6.93
136,Lorengau,100,PG,1606106825,61,-2.02,147.27,85.96,8.01
137,Dikson,15,RU,1606106731,95,73.51,80.55,6.44,13.44
138,Camopi,97,GF,1606106826,97,3.17,-52.32,71.83,1.74
139,Manaquiri,0,BR,1606106826,88,-3.32,-60.35,78.8,4.7
140,Maltahöhe,1,NA,1606106826,27,-24.83,16.98,61.65,5.99
141,Ağdam,72,AZ,1606106826,77,39.99,46.93,45.01,0.78
142,Mahébourg,75,MU,1606106738,78,-20.41,57.7,75.2,11.41
143,Cochrane,1,CA,1606106534,49,51.18,-114.47,32.0,9.73
144,Santiago,43,CL,1606106655,39,-33.46,-70.65,63.0,9.17
145,Aska,100,IN,1606106827,51,19.61,84.67,79.66,4.41
146,Tamandaré,77,BR,1606106827,81,-8.76,-35.1,75.56,5.53
147,Ruidoso,90,US,1606106827,100,33.33,-105.67,39.0,5.82
148,Katherine,0,AU,1606106828,37,-14.47,132.27,96.8,5.82
149,Chulym,100,RU,1606106828,98,55.1,80.96,19.33,4.68
150,Luga,97,RU,1606106615,86,58.74,29.85,41.88,10.74
151,Narsaq,82,GL,1606106828,73,60.92,-46.05,21.2,4.7
152,Soyo,100,AO,1606106828,88,-6.13,12.37,77.09,7.74
153,Puerto Escondido,5,MX,1606106828,74,15.85,-97.07,78.8,5.82
154,Basoko,94,CD,1606106829,81,1.24,23.62,73.87,1.43
155,Cocoa Beach,75,US,1606106794,83,28.32,-80.61,71.6,9.17
156,Atar,31,MR,1606106829,23,20.52,-13.05,70.92,14.52
157,Padang,100,ID,1606106829,72,-0.95,100.35,83.19,3.47
158,Maragogi,61,BR,1606106829,81,-9.01,-35.22,74.82,4.52
159,Bonanza,100,NI,1606106829,97,14.03,-84.59,72.34,2.17
160,Kumul,0,CN,1606106830,57,42.8,93.45,29.5,4.79
161,Carnarvon,0,AU,1606106830,48,-24.87,113.63,86.0,14.99
162,Pevek,78,RU,1606106830,95,69.7,170.31,12.6,0.63
163,Ixtapa,5,MX,1606106830,88,20.7,-105.2,77.0,2.86
164,Shihezi,17,CN,1606106831,74,44.3,86.03,25.84,5.23
165,Vinstra,22,NO,1606106831,88,61.6,9.75,27.07,5.37
166,East London,75,ZA,1606106731,93,-33.02,27.91,62.6,5.82
167,Vila Franca do Campo,40,PT,1606106831,93,37.72,-25.43,60.8,5.82
168,Leningradskiy,76,RU,1606106831,97,69.38,178.42,23.9,4.59
169,Three Hills,100,CA,1606106690,92,51.7,-113.27,8.6,4.7
170,Launceston,40,AU,1606106748,38,-41.45,147.17,75.99,5.82
171,Vrangel',0,RU,1606106832,79,42.73,133.08,31.33,15.26
172,Vila Velha,75,BR,1606106832,94,-20.33,-40.29,79.0,3.36
173,Fortuna,90,US,1606106788,100,40.6,-124.16,48.0,3.36
174,Avera,1,US,1606106832,78,33.19,-82.53,57.2,3.36
175,Guerrero Negro,73,MX,1606106833,84,27.98,-114.06,64.11,10.02
176,Puerto Ayora,67,EC,1606106833,80,-0.74,-90.35,72.0,5.99
177,Ahipara,100,NZ,1606106833,58,-35.17,173.17,62.64,6.73
178,Esso,100,RU,1606106833,91,55.93,158.7,16.7,10.0
179,Hobart,75,AU,1606106607,62,-42.88,147.33,68.0,18.34
180,La Rioja,0,ES,1606106728,100,42.25,-2.5,37.99,4.79
181,Nadym,39,RU,1606106593,95,65.53,72.52,9.63,12.39
182,Clyde River,90,CA,1606106834,84,70.47,-68.59,6.8,32.21
183,Necochea,93,AR,1606106834,59,-38.55,-58.74,70.0,18.79
184,San Rafael,1,AR,1606106834,53,-34.62,-68.33,73.99,6.98
185,Brusque,94,BR,1606106834,98,-27.1,-48.92,68.0,1.7
186,Villaviciosa,7,ES,1606106835,90,43.48,-5.44,46.0,5.01
187,Murgab,20,TM,1606106835,79,37.5,61.97,23.0,4.7
188,Aksu,74,CN,1606106835,64,41.12,80.26,30.97,6.2
189,Lakatoro,75,VU,1606106835,78,-16.1,167.42,82.4,6.93
190,Qaanaaq,65,GL,1606106835,77,77.48,-69.36,1.65,6.42
191,Pangai,75,TO,1606106835,74,-19.8,-174.35,78.8,4.7
192,Punta Arenas,75,CL,1606106836,75,-53.15,-70.92,42.8,5.82
193,Aswān,0,EG,1606106836,48,24.09,32.91,58.78,7.94
194,Samaná,48,DO,1606106836,88,19.21,-69.34,75.24,5.95
195,Haines Junction,100,CA,1606106771,75,60.75,-137.51,-13.0,1.14
196,São Gabriel da Cachoeira,91,BR,1606106737,94,-0.13,-67.09,73.54,1.57
197,Avarua,100,CK,1606106740,83,-21.21,-159.78,77.0,6.93
198,Talnakh,75,RU,1606106837,92,69.49,88.4,6.8,4.47
199,Eskişehir,90,TR,1606106837,92,39.78,30.52,21.2,1.12
200,Koungou,75,YT,1606106837,74,-12.73,45.2,84.2,8.05
201,Lavrentiya,100,RU,1606106837,97,65.58,-171.0,31.3,4.29
202,Boyolangu,95,ID,1606106838,67,-8.12,111.89,85.41,7.34
203,Camacha,20,PT,1606106721,77,33.08,-16.33,62.6,6.93
204,Khatanga,100,RU,1606106751,96,71.97,102.5,15.8,17.2
205,Grand-Santi,92,GF,1606106838,97,4.25,-54.38,72.18,1.52
206,Richards Bay,96,ZA,1606106839,80,-28.78,32.04,72.81,9.64
207,Tura,0,IN,1606106769,49,25.52,90.22,73.6,3.8
208,Zyryanovsk,95,KZ,1606106839,91,49.74,84.27,18.63,0.94
209,Ranong,40,TH,1606106839,74,9.97,98.63,87.8,4.7
210,Kultayevo,0,RU,1606106840,57,57.89,55.94,23.0,11.18
211,Saint George,1,US,1606106840,25,37.1,-113.58,51.8,2.08
212,Troitsko-Pechorsk,100,RU,1606106840,95,62.71,56.2,20.3,11.83
213,Neiafu,75,TO,1606106840,78,-18.65,-173.98,78.8,5.82
214,Ilulissat,99,GL,1606106693,79,69.22,-51.1,19.4,13.87
215,Teruel,0,ES,1606106745,86,40.67,-0.67,42.8,1.19
216,Upernavik,99,GL,1606106841,90,72.79,-56.15,18.25,10.45
217,Da Lat,39,VN,1606106841,57,11.95,108.44,75.06,5.48
218,Phan Thiet,7,VN,1606106841,67,10.93,108.1,84.04,9.28
219,Villa Guerrero,0,MX,1606106841,60,18.87,-99.65,57.42,3.74
220,Tagusao,44,PH,1606106841,69,9.19,117.81,85.23,9.53
221,Den Helder,20,NL,1606106842,66,52.96,4.76,48.2,13.87
222,Abhā,0,SA,1606106842,31,18.22,42.51,48.2,2.71
223,Trincomalee,100,LK,1606106842,80,8.57,81.23,81.86,13.85
224,Yarmouth,90,US,1606106842,87,41.71,-70.23,51.01,9.17
225,Mount Gambier,90,AU,1606106843,72,-37.83,140.77,62.6,17.22
226,Eureka,92,US,1606106654,94,40.8,-124.16,48.0,1.01
227,Babati,65,TZ,1606106843,81,-4.22,35.75,68.72,3.11
228,Kutum,21,SD,1606106843,38,14.2,24.67,55.58,5.61
229,Port-Cartier,100,CA,1606106764,79,50.03,-66.87,23.0,3.36
230,Chardara,9,KZ,1606106844,92,41.25,67.97,30.13,4.34
231,Finschhafen,61,PG,1606106844,74,-6.6,147.87,82.69,2.68
232,Khulo,40,GE,1606106844,57,41.64,42.31,50.0,11.41
233,Sola,94,VU,1606106844,83,-13.88,167.55,79.39,11.03
234,Chara,19,RU,1606106844,87,56.91,118.26,13.23,5.57
235,San Patricio,75,US,1606106845,73,28.02,-97.52,71.6,4.7
236,Udachny,75,RU,1606106845,92,66.42,112.4,6.8,4.47
237,Koumac,70,NC,1606106823,77,-20.57,164.28,75.65,7.43
238,Djambala,100,CG,1606106845,99,-2.54,14.75,67.14,2.68
239,San Buenaventura,86,MX,1606106720,60,27.08,-101.53,72.0,4.0
240,Boende,100,CD,1606106845,98,-0.22,20.87,71.8,2.21
241,Korla,100,CN,1606106846,69,41.76,86.15,27.75,5.64
242,Gushikawa,90,JP,1606106846,78,26.35,127.87,71.6,18.34
243,Klamath Falls,90,US,1606106846,89,42.22,-121.78,34.0,2.51
244,Faanui,45,PF,1606106732,73,-16.48,-151.75,80.89,6.46
245,Atakent,0,KZ,1606106846,90,40.85,68.51,29.5,3.83
246,Truth or Consequences,1,US,1606106847,54,33.13,-107.25,54.0,6.93
247,Mama,100,RU,1606106847,92,58.31,112.9,20.73,6.96
248,Anloga,20,GH,1606106847,88,5.79,0.9,78.8,6.93
249,Hualmay,97,PE,1606106728,84,-11.1,-77.61,63.14,7.67
250,Tegul'det,96,RU,1606106847,97,57.31,88.17,20.66,2.46
251,Lesnoy,91,RU,1606106848,91,57.62,63.08,19.54,8.48
252,Puchezh,99,RU,1606106848,97,56.98,43.17,29.97,18.95
253,Hervey Bay,0,AU,1606106848,45,-25.3,152.85,84.2,13.87
254,Hamilton,90,US,1606106706,80,39.18,-84.53,39.2,10.29
255,Ponta do Sol,20,PT,1606106848,77,32.67,-17.1,63.0,8.05
256,Morgan City,1,US,1606106849,93,29.7,-91.21,62.6,5.28
257,Zhangzhou,75,CN,1606106849,57,24.51,117.66,75.2,15.66
258,Mana,100,GF,1606106849,90,5.66,-53.78,76.8,8.9
259,Huanren,0,CN,1606106849,75,41.26,125.37,32.05,2.57
260,Makakilo City,90,US,1606106849,69,21.35,-158.09,78.8,10.29
261,Dukat,99,RU,1606106849,88,62.55,155.55,-11.04,3.74
262,Changchun,0,CN,1606106850,62,43.88,125.32,23.0,13.42
263,Fairbanks,75,US,1606106744,76,64.84,-147.72,7.0,3.18
264,Thinadhoo,100,MV,1606106850,71,0.53,72.93,82.87,5.97
265,Poum,25,NC,1606106806,75,-20.23,164.02,76.8,13.67
266,Kwang Binh,12,VN,1606106851,71,17.48,106.6,81.32,12.21
267,Aktas,75,KZ,1606106851,85,49.78,72.96,19.4,6.71
268,Touros,40,BR,1606106851,88,-5.2,-35.46,75.2,3.36
269,Makkah al Mukarramah,0,SA,1606106851,66,21.43,39.83,74.44,3.15
270,Muzhi,16,RU,1606106851,93,65.37,64.67,16.52,12.55
271,Cockburn Town,90,TC,1606106851,74,21.46,-71.14,80.01,3.89
272,Esperance,1,AU,1606106852,40,-33.87,121.9,82.4,6.93
273,Prince Rupert,90,CA,1606106852,86,54.32,-130.32,42.8,4.7
274,Merauke,37,ID,1606106852,77,-8.47,140.33,84.69,13.51
275,Raja,82,SS,1606106852,29,8.46,25.68,68.47,4.45
276,Lewistown,90,US,1606106728,100,40.6,-77.57,46.99,9.6
277,Sijunjung,81,ID,1606106852,66,-0.69,100.95,85.75,2.68
278,Le Port,0,RE,1606106853,61,-20.94,55.29,78.8,18.34
279,Vardø,75,NO,1606106853,79,70.37,31.11,24.8,4.7
280,Novoil'insk,92,RU,1606106853,90,51.68,108.71,28.36,9.64
281,Hambantota,40,LK,1606106853,83,6.12,81.12,84.2,2.24
282,Menongue,100,AO,1606106853,91,-14.66,17.69,64.96,3.91
283,Saskylakh,1,RU,1606106854,91,71.92,114.08,3.63,8.9
284,Saint-Augustin,0,CA,1606106854,91,51.23,-58.65,18.46,7.61
285,Hihyā,51,EG,1606106854,87,30.67,31.59,57.2,6.93
286,Berlevåg,75,NO,1606106854,84,70.86,29.09,32.0,4.7
287,Mocajuba,94,BR,1606106854,96,-2.58,-49.51,73.96,1.41
288,Carinhanha,69,BR,1606106854,89,-14.3,-43.77,69.67,2.93
289,Palafrugell,0,ES,1606106855,80,41.92,3.16,42.01,4.61
290,Karratha,4,AU,1606106855,48,-20.74,116.85,90.81,14.16
291,São João da Barra,98,BR,1606106722,86,-21.64,-41.05,72.25,7.52
292,Cortez,1,US,1606106855,46,37.35,-108.59,53.6,16.11
293,Kaeo,100,NZ,1606106855,70,-35.1,173.78,63.0,5.01
294,Tolaga Bay,100,NZ,1606106856,58,-38.37,178.3,56.52,8.32
295,Port Hardy,90,CA,1606106749,93,50.7,-127.42,44.6,16.11
296,Vršac,86,RS,1606106856,87,45.12,21.3,36.0,2.24
297,Srednekolymsk,100,RU,1606106856,95,67.45,153.68,5.54,8.46
298,Perambalur,40,IN,1606106856,69,11.23,78.88,78.8,6.93
299,Nizhniy Tsasuchey,3,RU,1606106856,88,50.52,115.13,29.16,12.59
300,Novy Urengoy,100,RU,1606106857,95,66.08,76.63,11.1,12.08
301,Eyl,56,SO,1606106857,67,7.98,49.82,81.28,10.25
302,Hajnówka,86,PL,1606106857,87,52.74,23.58,37.99,1.99
303,Tooele,1,US,1606106857,92,40.53,-112.3,30.99,3.36
304,Progreso,5,MX,1606106857,83,21.28,-89.67,75.2,4.7
305,Salalah,75,OM,1606106857,74,17.02,54.09,80.6,5.82
306,Millinocket,90,US,1606106858,63,45.66,-68.71,30.2,4.7
307,Strandby,100,DK,1606106858,86,57.49,10.5,44.01,5.01
308,Sibolga,100,ID,1606106858,68,1.74,98.78,82.36,2.44
309,Río Gallegos,0,AR,1606106858,81,-51.62,-69.22,46.4,4.7
310,Palencia,0,ES,1606106647,74,42.42,-4.5,40.48,2.44
311,Qaqortoq,69,GL,1606106858,73,60.72,-46.03,21.2,4.7
312,Yulara,71,AU,1606106755,17,-25.24,130.99,91.4,12.75
313,Shingū,20,JP,1606106761,52,33.73,135.98,66.2,19.46
314,Laguna,40,US,1606106859,76,38.42,-121.42,53.01,4.7
315,Tateyama,75,JP,1606106859,55,34.98,139.87,68.0,14.99
316,Margherita,40,IN,1606106859,68,27.28,95.68,68.0,6.93
317,Trabzon Province,75,TR,1606106859,81,40.92,39.83,46.4,4.7
318,Wasilla,1,US,1606106860,79,61.58,-149.44,25.0,7.67
319,Huarmey,97,PE,1606106860,84,-10.07,-78.15,63.77,6.67
320,Thompson,90,CA,1606106561,84,55.74,-97.86,-0.4,2.24
321,Matagami,90,CA,1606106860,92,49.75,-77.63,21.2,5.82
322,Deputatsky,100,RU,1606106860,88,69.3,139.9,-4.43,3.78
323,Kysyl-Syr,100,RU,1606106860,91,63.9,122.76,-5.4,1.34
324,Sumbe,100,AO,1606106861,91,-11.21,13.84,75.15,4.25
325,La Ronge,100,CA,1606106740,77,55.1,-105.28,5.0,5.82
326,Oskemen,90,KZ,1606106861,92,49.96,82.61,12.2,4.47
327,Shelburne,100,CA,1606106861,94,44.08,-80.2,30.99,10.04
328,Devrek,0,TR,1606106861,76,41.22,31.96,37.58,3.67
329,Marsh Harbour,0,BS,1606106861,79,26.54,-77.06,76.5,9.35
330,Usinsk,100,RU,1606106862,96,65.99,57.53,20.39,22.1
331,Mount Isa,0,AU,1606106822,10,-20.73,139.5,102.2,11.41
332,Hokitika,99,NZ,1606106862,76,-42.72,170.97,55.89,6.2
333,Uíge,100,AO,1606106805,96,-7.61,15.06,68.13,1.74
334,Camabatela,100,AO,1606106863,100,-8.19,15.38,64.36,4.29
335,Canchungo,13,GW,1606106863,87,12.07,-16.03,73.67,3.74
336,Lima,0,PE,1606106731,82,-12.04,-77.03,62.6,11.41
337,Agirish,18,RU,1606106863,92,61.92,63.02,17.49,10.8
338,Waterford,90,US,1606106863,86,42.7,-83.4,33.8,12.75
339,Brotas,0,BR,1606106864,86,-22.28,-48.13,61.93,10.0
340,Malkara,0,TR,1606106864,91,40.89,26.9,35.92,4.9
341,Panguna,59,PG,1606106864,76,-6.32,155.48,77.74,0.11
342,Zhuanghe,0,CN,1606106864,60,39.7,122.99,39.16,9.44
343,Kamień Pomorski,0,PL,1606106864,100,53.97,14.77,39.99,3.36
344,Palpa,8,PE,1606106865,72,-14.53,-75.19,62.29,1.54
345,Boa Vista,20,BR,1606106865,78,2.82,-60.67,80.6,4.7
346,Kununurra,36,AU,1606106598,32,-15.77,128.73,96.8,9.17
347,Peçanha,38,BR,1606106865,96,-18.55,-42.56,61.38,3.49
348,Alice Springs,93,AU,1606106692,18,-23.7,133.88,93.2,16.11
349,Bonthe,14,SL,1606106865,84,7.53,-12.51,77.45,3.89
350,Kavieng,96,PG,1606106866,64,-2.57,150.8,85.01,7.65
351,Middlebury (village),90,US,1606106704,70,44.02,-73.17,42.8,11.41
352,Kiryat Gat,20,IL,1606106866,93,31.61,34.76,60.01,1.12
353,Wiwilí,100,NI,1606106866,87,13.63,-85.83,72.28,2.1
354,San Jerónimo,59,PE,1606106866,69,-11.95,-75.28,47.8,2.48
355,Santos Reyes Nopala,5,MX,1606106866,74,16.11,-97.16,78.8,5.82
356,Challans,97,FR,1606106867,93,46.84,-1.87,37.4,1.12
357,Pinsk,73,BY,1606106596,85,52.12,26.1,40.14,13.65
358,Tuatapere,100,NZ,1606106811,57,-46.13,167.68,59.0,5.01
359,Swellendam,76,ZA,1606106867,93,-34.02,20.44,55.4,4.7
360,Kasongo-Lunda,94,CD,1606106867,93,-6.47,16.82,69.51,0.6
361,Craig,20,US,1606106867,73,40.52,-107.55,33.8,3.36
362,Iqaluit,90,CA,1606106868,67,63.75,-68.51,21.2,4.7
363,Ratne,75,UA,1606106868,86,51.67,24.53,41.0,8.95
364,Quelimane,0,MZ,1606106868,83,-17.88,36.89,78.8,6.93
365,Atasū,78,KZ,1606106868,95,48.68,71.64,18.01,8.3
366,Xingyi,12,CN,1606106868,48,24.19,102.82,66.38,7.63
367,Salinas,1,US,1606106703,76,36.68,-121.66,53.6,6.93
368,Souillac,75,MU,1606106869,78,-20.52,57.52,75.2,11.41
369,Molchanovo,43,RU,1606106869,97,57.58,83.77,18.32,2.15
370,Garoowe,99,SO,1606106869,59,8.41,48.48,78.55,8.21
371,Dawlatabad,33,AF,1606106869,80,36.41,64.91,30.63,3.18
372,Port Blair,92,IN,1606106729,75,11.67,92.75,83.48,8.63
373,Olinda,75,BR,1606106869,73,-8.01,-34.86,77.0,6.93
374,Oranjestad,20,AW,1606106786,78,12.52,-70.03,82.4,18.34
375,Kiunga,98,PG,1606106870,65,-6.12,141.29,87.75,2.91
376,Japura,92,ID,1606106870,77,-0.32,102.35,83.97,3.62
377,Ambon City,49,ID,1606106870,67,-3.7,128.18,85.71,6.33
378,Kemijärvi,100,FI,1606106871,97,66.71,27.43,33.93,3.49
379,Hirara,75,JP,1606106871,83,24.8,125.28,78.8,19.46
380,Walvis Bay,90,NA,1606106871,93,-22.96,14.51,57.99,1.12
381,Nantucket,90,US,1606106678,81,41.28,-70.1,51.8,21.92
382,Gombong,97,ID,1606106583,67,-7.61,109.51,75.0,6.17
383,Sovetskiy,40,RU,1606106872,92,61.36,63.58,17.65,9.86
384,Chātakonda,100,IN,1606106872,68,17.55,80.65,80.83,4.38
385,Kawalu,72,ID,1606106872,57,-7.38,108.21,86.99,5.17
386,Beringovskiy,90,RU,1606106872,96,63.05,179.32,23.85,1.72
387,Port Moresby,75,PG,1606106872,74,-9.44,147.18,86.0,17.22
388,Te Anau,100,NZ,1606106872,52,-45.42,167.72,56.03,1.54
389,Trofors,75,NO,1606106873,75,65.53,13.41,42.8,11.41
390,Bambous Virieux,75,MU,1606106873,78,-20.34,57.76,79.0,11.41
391,Broome,90,US,1606106873,93,42.25,-75.83,46.0,12.75
392,Cancún,40,MX,1606106722,83,21.17,-86.85,80.01,7.25
393,Karwar,87,IN,1606106648,53,14.8,74.13,85.03,4.61
394,Victor Harbor,56,AU,1606106873,66,-35.57,138.62,64.0,4.0
395,Santa Rosalía,0,MX,1606106874,67,27.32,-112.28,66.54,3.04
396,Saint-François,40,FR,1606106874,92,46.42,3.91,28.99,0.49
397,Cabra,0,ES,1606106761,86,37.47,-4.44,39.2,1.12
398,Coahuayana Viejo,0,MX,1606106875,86,18.73,-103.68,74.39,2.82
399,Porto-Novo,40,BJ,1606106644,94,6.5,2.6,78.8,3.36
400,Rock Sound,25,BS,1606106875,79,24.9,-76.2,77.68,9.55
401,Datong,7,CN,1606106875,68,40.09,113.29,24.8,1.7
402,Atambua,45,ID,1606106875,55,-9.11,124.89,87.66,2.35
403,Mataram,75,ID,1606106875,70,-8.58,116.12,86.0,3.36
404,Rawson,51,AR,1606106875,27,-43.3,-65.1,68.47,11.05
405,Araouane,0,ML,1606106876,33,18.9,-3.53,64.51,14.81
406,Togur,55,RU,1606106876,97,58.36,82.83,16.38,2.01
407,Qasigiannguit,99,GL,1606106876,79,68.82,-51.19,19.4,13.87
408,Chui,0,UY,1606106876,88,-33.7,-53.46,57.07,8.08
409,Stephenville,40,US,1606106876,81,32.22,-98.2,48.2,5.82
410,São Félix do Xingu,100,BR,1606106937,97,-6.64,-51.99,70.68,0.69
411,Meulaboh,96,ID,1606106937,65,4.14,96.13,82.09,5.46
412,Tlazazalca,0,MX,1606106937,73,19.97,-102.07,54.0,3.36
413,Bibiani,40,GH,1606106937,99,6.46,-2.32,69.84,0.78
414,Alofi,90,NU,1606106937,79,-19.06,-169.92,77.0,8.05
415,Flinders,100,AU,1606106938,63,-34.58,150.86,75.99,8.99
416,Tessalit,0,ML,1606106938,40,20.2,1.01,54.63,10.27
417,Māngrol,0,IN,1606106938,37,21.12,70.12,79.03,3.53
418,Norman Wells,75,CA,1606106938,72,65.28,-126.83,10.4,11.41
419,Lere,89,NG,1606106939,48,10.39,8.57,65.41,3.42
420,Smithers,90,CA,1606106939,92,54.78,-127.17,30.2,2.24
421,Kuna,1,US,1606106939,100,43.49,-116.42,30.2,1.68
422,Ratnagiri,47,IN,1606106939,47,16.98,73.3,86.31,1.03
423,Blythe,1,US,1606106939,18,33.61,-114.6,62.6,5.82
424,Aparecida,59,BR,1606106939,82,-22.85,-45.23,62.01,1.23
425,Huilong,95,CN,1606106940,73,31.81,121.66,57.0,11.61
426,Pelym,69,RU,1606106940,89,61.01,62.0,19.54,9.64
427,Mafeteng,0,LS,1606106940,72,-29.82,27.24,63.55,11.81
428,Sosnovo-Ozerskoye,89,RU,1606106940,94,52.52,111.54,20.26,13.02
429,Zhigansk,95,RU,1606106940,90,66.77,123.37,-8.34,5.5
430,Hastings,28,GB,1606106940,74,50.86,0.57,46.0,1.01
431,Pangnirtung,86,CA,1606106941,73,66.15,-65.71,5.29,5.82
432,Sangar,0,RU,1606106941,85,63.92,127.47,-17.3,0.54
433,Semnan,95,IR,1606106941,74,35.57,53.4,45.91,3.29
434,Kralendijk,65,BQ,1606106661,81,12.15,-68.27,82.35,22.21
435,College,75,US,1606106941,76,64.86,-147.8,7.0,3.31
436,Wembley,0,AU,1606106941,18,-31.93,115.8,95.0,10.29
437,Mwense,99,ZM,1606106942,88,-10.38,28.7,71.08,0.92
438,Zliten,91,LY,1606106942,75,32.47,14.57,64.24,10.67
439,Chakrāta,100,IN,1606106942,42,30.7,77.85,52.39,4.56
440,San Cristobal,61,VE,1606106789,88,7.77,-72.22,65.34,1.9
441,Tarakan,100,ID,1606106942,68,3.3,117.63,84.18,4.47
442,Takaka,100,NZ,1606106942,80,-40.85,172.8,57.99,4.0
443,Novyy Urgal,100,RU,1606106942,87,51.07,132.56,10.11,0.2
444,Dugda,0,IN,1606106943,25,23.75,86.17,75.6,5.55
445,Hereford,98,GB,1606106943,94,52.06,-2.71,42.01,2.98
446,Margate,39,GB,1606106943,86,51.38,1.39,46.99,6.08
447,Portland,90,US,1606106751,86,45.52,-122.68,41.0,3.91
448,Kilis,0,TR,1606106943,64,36.72,37.12,39.2,2.24
449,Mokhsogollokh,95,RU,1606106943,90,61.47,128.92,-7.91,2.26
450,Muisne,93,EC,1606106944,85,0.6,-80.03,73.02,6.24
451,Mae Hong Son,20,TH,1606106944,61,19.3,97.97,82.4,2.24
452,Kabalo,60,CD,1606106944,87,-6.05,26.92,72.73,1.14
453,Bunia,0,CD,1606106944,85,1.57,30.25,68.43,3.04
454,Todos Santos,0,MX,1606106944,83,23.45,-110.22,71.01,4.16
455,Geraldton,0,AU,1606106811,13,-28.77,114.6,104.0,9.17
456,Tabou,100,CI,1606106945,86,4.42,-7.35,77.67,6.46
457,Paamiut,100,GL,1606106699,92,61.99,-49.67,26.6,27.72
458,Achacachi,37,BO,1606106945,70,-16.05,-68.68,41.52,2.17
459,Utmanzai,75,PK,1606106945,81,34.19,71.76,53.6,4.7
460,Burē,70,ET,1606106945,55,10.7,37.07,60.42,2.82
461,Sinnamary,98,GF,1606106946,88,5.38,-52.95,77.49,8.39
462,Uvarovka,100,RU,1606106946,99,55.53,35.61,29.8,4.21
463,Itarema,29,BR,1606106946,81,-2.92,-39.92,78.75,12.84
464,Carutapera,99,BR,1606106946,90,-1.2,-46.02,76.39,5.14
465,Altar,100,MX,1606106946,48,30.7,-111.82,62.01,1.39
466,Brigantine,90,US,1606106765,87,39.41,-74.36,60.8,6.93
467,Itum-Kale,98,RU,1606106947,87,42.74,45.58,32.92,2.13
468,Buta,10,CD,1606106947,83,2.79,24.73,69.87,2.44
469,Varkaus,75,FI,1606106728,86,62.32,27.87,39.2,11.41
470,Svetlaya,58,RU,1606106947,79,46.54,138.33,25.92,6.64
471,Lebanon,90,US,1606106745,81,36.21,-86.29,44.6,9.17
472,Valparaíso,90,CL,1606106948,93,-33.04,-71.63,57.2,8.05
473,Erenhot,0,CN,1606106948,88,43.65,111.98,19.67,12.24
474,Tigil',100,RU,1606106948,95,57.8,158.67,14.67,2.98
475,Jimeta,100,NG,1606106948,39,9.28,12.47,74.98,2.04
476,Lugo,21,ES,1606106948,100,43.0,-7.5,37.99,1.3
477,Ugra,100,RU,1606106948,94,54.78,34.33,36.18,9.64
478,Ciudad Juárez,40,MX,1606106729,71,31.73,-106.48,55.99,11.41
479,Arkansas City,1,US,1606106666,65,37.06,-97.04,37.99,3.36
480,Sinop Province,5,TR,1606106949,89,41.77,34.87,34.14,8.39
481,Vilhena,56,BR,1606106737,73,-12.74,-60.15,71.96,3.83
482,Tocopilla,40,CL,1606106949,67,-22.09,-70.2,61.3,4.16
483,Constitución,0,CL,1606106950,81,-35.33,-72.42,54.3,8.66
484,Gdańsk,75,PL,1606106950,81,54.35,18.65,42.8,14.99
485,Kyaikkami,1,MM,1606106950,71,16.08,97.57,82.38,6.08
486,Bogolyubovo,100,RU,1606106950,98,56.2,40.53,26.96,11.1
487,Grootfontein,72,NA,1606106950,43,-19.57,18.12,73.58,3.09
488,Port-Gentil,99,GA,1606106950,86,-0.72,8.78,78.49,12.26
489,Mossamedes,53,AO,1606106951,78,-15.2,12.15,67.01,4.59
490,Dingle,98,PH,1606106951,93,11.0,122.67,76.28,10.78
491,Novikovo,99,RU,1606106951,98,51.15,37.89,28.51,15.3
492,Emba,92,KZ,1606106951,89,48.83,58.14,18.63,0.83
493,Iquique,90,CL,1606106951,63,-20.22,-70.14,64.4,4.7
494,Polis,20,CY,1606106951,82,35.04,32.43,55.4,11.41
495,Marawi,100,PH,1606106952,88,8.0,124.29,80.01,11.99
496,Selizharovo,98,RU,1606106952,93,56.85,33.45,34.9,6.62
497,Goundam,8,ML,1606106952,24,16.41,-3.67,70.47,11.79
498,The Valley,20,AI,1606106811,74,18.22,-63.06,80.6,11.41
499,Nanortalik,79,GL,1606106952,91,60.14,-45.24,29.73,25.46
500,Kisangani,99,CD,1606106952,90,0.52,25.2,72.63,2.19
501,Carmarthen,84,GB,1606106953,93,51.86,-4.31,46.99,3.36
502,Almaznyy,75,RU,1606106953,86,48.04,40.05,28.4,8.95
503,Kulhudhuffushi,2,MV,1606106953,69,6.62,73.07,82.67,9.93
504,Alice Town,0,BS,1606106953,80,25.72,-79.3,77.32,8.97
505,Yar-Sale,100,RU,1606106953,96,66.83,70.83,12.49,16.04
506,Yangi Marg`ilon,40,UZ,1606106953,79,40.43,71.72,26.6,2.24
507,Tuskegee,1,US,1606106738,93,32.42,-85.69,55.4,5.82
508,Suez,59,EG,1606106954,84,29.97,32.53,62.08,5.86
509,Kosh-Agach,69,RU,1606106954,86,50.0,88.67,7.3,0.25
510,Bud,90,US,1606106954,100,39.45,-86.18,39.0,5.61
511,Jiexiu,100,CN,1606106954,61,37.02,111.91,36.43,3.49
512,Kayerkan,75,RU,1606106955,92,69.35,87.76,6.8,4.47
513,Wexford,20,IE,1606106955,88,52.33,-6.46,46.0,8.28
514,Tambilil,75,PH,1606106955,52,5.96,124.67,91.4,10.29
515,Zhongshu,2,CN,1606106955,47,24.52,103.77,67.75,9.1
516,Miles City,1,US,1606106955,47,46.41,-105.84,33.8,10.29
517,Farah,52,AF,1606106955,62,32.5,62.5,46.26,3.49
518,Søgne,84,NO,1606106956,86,58.08,7.82,42.01,16.51
519,Breves,100,BR,1606106956,95,-1.68,-50.48,74.19,0.56
520,Urucará,85,BR,1606106956,95,-2.54,-57.76,73.65,1.86
521,San Quintín,88,MX,1606106956,87,30.48,-115.95,61.14,8.72
522,Dutse,79,NG,1606106957,46,11.76,9.34,66.51,4.61
523,Khasan,0,RU,1606106957,64,42.43,130.64,36.79,9.78
524,Kumano,75,JP,1606106957,58,34.34,132.59,62.6,9.17
525,Akhisar,0,TR,1606106777,75,38.92,27.84,41.67,4.47
526,Mercedes,0,AR,1606106957,74,-34.65,-59.43,69.01,4.0
527,Dongsheng,0,CN,1606106824,79,39.82,109.98,20.23,3.42
528,Luganville,75,VU,1606106958,78,-15.53,167.17,82.4,6.93
529,Cutervo,82,PE,1606106958,100,-6.38,-78.82,51.19,2.82
530,Laas,40,IT,1606106958,80,46.62,10.7,33.8,6.93
531,Languyan,80,PH,1606106958,70,5.26,120.08,86.36,4.61
532,Mīnāb,20,IR,1606106723,78,27.15,57.08,71.6,4.7
533,Havelock,75,US,1606106701,93,34.88,-76.9,62.01,3.36
534,Sars,100,RU,1606106959,88,56.55,57.14,19.02,10.2
535,Meerane,99,DE,1606106959,87,50.85,12.47,45.0,8.05
536,Zhangye,11,CN,1606106959,83,38.93,100.45,24.17,3.51
537,Manjacaze,97,MZ,1606106959,71,-24.71,33.88,78.03,7.74
538,Bāfq,7,IR,1606106960,74,31.61,55.41,48.67,0.92
539,Kieta,83,PG,1606106960,64,-6.22,155.63,84.02,3.62
540,Kandrian,28,PG,1606106960,67,-6.22,149.55,85.17,5.95
541,Saint Anthony,1,US,1606106960,74,45.02,-93.22,32.0,11.41
542,Antofagasta,75,CL,1606106854,77,-23.65,-70.4,60.8,5.82
543,Khor,100,RU,1606106960,94,47.89,134.95,17.19,14.99
544,Luanda,75,AO,1606106761,83,-8.84,13.23,78.8,6.93
545,Hasaki,40,JP,1606106679,52,35.73,140.83,66.99,10.29
546,Ust'-Ilimsk,100,RU,1606106961,96,58.0,102.66,20.61,8.61
547,Elko,1,US,1606106961,62,41.0,-115.5,30.99,2.77
548,Ocós,40,GT,1606106961,100,14.51,-92.19,75.2,3.85
549,Mocuba,54,MZ,1606106961,66,-16.84,36.99,80.98,6.26
550,Cayenne,75,GF,1606106745,100,4.93,-52.33,77.0,4.7
551,Kudahuvadhoo,30,MV,1606106962,69,2.67,72.89,83.14,5.64
552,Ushirombo,18,TZ,1606106962,90,-3.49,31.96,68.81,0.72
553,Kintampo,0,GH,1606106962,82,8.06,-1.73,72.28,2.82
554,Burns Lake,100,CA,1606106962,92,54.23,-125.75,26.6,36.91
555,Neuquén,0,AR,1606106963,42,-38.95,-68.06,68.0,3.36
556,Antalaha,17,MG,1606106963,64,-14.9,50.28,79.68,7.52
557,Sirte,0,LY,1606106963,62,31.21,16.59,64.99,21.03
558,Dalby,0,AU,1606106963,10,-27.18,151.27,98.01,3.0
559,Asău,89,RO,1606106963,80,46.43,26.4,35.01,5.68
560,Baykit,69,RU,1606106963,93,61.67,96.37,16.3,5.26
561,Bongandanga,59,CD,1606106964,87,1.5,21.05,71.31,0.83
562,Barabinsk,98,RU,1606106964,97,55.36,78.36,16.32,1.32
563,Kanigoro,99,ID,1606106964,70,-8.13,112.22,84.99,8.21
564,Klaksvík,53,FO,1606106964,81,62.23,-6.59,42.8,11.41
565,Casablanca,40,MA,1606106793,100,33.59,-7.62,44.6,2.24
566,Bouar,94,CF,1606106964,56,5.93,15.6,65.77,4.0
567,Along,55,IN,1606106965,37,28.17,94.77,70.56,0.22
568,Kautokeino,87,NO,1606106965,96,69.01,23.04,25.45,7.65
569,Jieshi,64,CN,1606106965,84,22.81,115.83,73.0,1.01
570,Vao,0,NC,1606106965,73,-22.67,167.48,72.68,12.41
571,Cape Canaveral,75,US,1606106965,94,28.41,-80.6,71.6,5.82
572,Ulaanbaatar,0,MN,1606106965,61,47.91,106.88,12.2,2.24
573,Amparafaravola,83,MG,1606106966,58,-17.58,48.22,74.66,4.36
574,Sabla,1,NG,1606106966,29,12.75,4.71,70.16,6.93
